{
  "TrainName": "AVADH EXP",
  "TrainNo": 19037,
  "TrainNumberString": null,
  "CoachPosition": null,
  "Classes": ["1A", "2A", "3A", "3E", "SL"],
  "Schedule": [
    {
      "intermediateStations": [
        {
          "StationName": "Santa Cruz",
          "StationCode": "STC",
          "ArrivalTime": "22:03",
          "DepartureTime": "22:03",
          "HaltMinutes": "&nbsp;",
          "Day": 1,
          "Latitude": 19.08156,
          "Longitude": 72.84164,
          "stopNumberDisplay": "1.1",
          "Distance": "2.1"
        },
        {
          "StationName": "Ville Parle",
          "StationCode": "VLP",
          "ArrivalTime": "22:05",
          "DepartureTime": "22:05",
          "HaltMinutes": "&nbsp;",
          "Day": 1,
          "Latitude": 19.10004,
          "Longitude": 72.84406,
          "stopNumberDisplay": "1.2",
          "Distance": "4.0"
        }
      ],
      "TrainNo": 19037,
      "StationCode": "BDTS",
      "RouteNo": 1,
      "StopNumber": 1,
      "TrainMappingKey": "99190371",
      "StationName": "BANDRA TERMINUS",
      "ArrivalTime": "",
      "DepartureTime": "22:00",
      "HaltMinutes": "0",
      "Distance": "0",
      "HasWifi": false,
      "Day": 1,
      "DataChanged": false,
      "ExpectedPlatformNo": "5",
      "arrivalDelay": "01 Min",
      "departureDelay": "01 Min",
      "Latitude": null,
      "Longitude": null,
      "stopNumberDisplay": 1.0
    },
    {
      "intermediateStations": [
        {
          "StationName": "Jogeshwari",
          "StationCode": "JOS",
          "ArrivalTime": "22:13",
          "DepartureTime": "22:13",
          "HaltMinutes": "&nbsp;",
          "Day": 1,
          "Latitude": 19.13647,
          "Longitude": 72.84896,
          "stopNumberDisplay": "2.1",
          "Distance": "8.1"
        },
        {
          "StationName": "Ram Mandir",
          "StationCode": "RMAR",
          "ArrivalTime": "22:15",
          "DepartureTime": "22:15",
          "HaltMinutes": "&nbsp;",
          "Day": 1,
          "Latitude": 19.15168,
          "Longitude": 72.85023,
          "stopNumberDisplay": "2.2",
          "Distance": "9.8"
        },
        {
          "StationName": "Goregaon",
          "StationCode": "GMN",
          "ArrivalTime": "22:17",
          "DepartureTime": "22:17",
          "HaltMinutes": "&nbsp;",
          "Day": 1,
          "Latitude": 19.16461,
          "Longitude": 72.84961,
          "stopNumberDisplay": "2.3",
          "Distance": "11.2"
        },
        {
          "StationName": "Malad",
          "StationCode": "MDD",
          "ArrivalTime": "22:21",
          "DepartureTime": "22:21",
          "HaltMinutes": "&nbsp;",
          "Day": 1,
          "Latitude": 19.18723,
          "Longitude": 72.84898,
          "stopNumberDisplay": "2.4",
          "Distance": "13.7"
        },
        {
          "StationName": "Kandivli",
          "StationCode": "KILE",
          "ArrivalTime": "22:24",
          "DepartureTime": "22:24",
          "HaltMinutes": "&nbsp;",
          "Day": 1,
          "Latitude": 19.20451,
          "Longitude": 72.85199,
          "stopNumberDisplay": "2.5",
          "Distance": "15.6"
        },
        {
          "StationName": "Kandivli EMU Shed",
          "StationCode": "KDKC",
          "ArrivalTime": "22:25",
          "DepartureTime": "22:25",
          "HaltMinutes": "&nbsp;",
          "Day": 1,
          "Latitude": null,
          "Longitude": null,
          "stopNumberDisplay": "2.6",
          "Distance": "16.4"
        }
      ],
      "TrainNo": 19037,
      "StationCode": "ADH",
      "RouteNo": 1,
      "StopNumber": 2,
      "TrainMappingKey": "99190372",
      "StationName": "ANDHERI",
      "ArrivalTime": "22:08",
      "DepartureTime": "22:10",
      "HaltMinutes": "02:00",
      "Distance": "7",
      "HasWifi": false,
      "Day": 1,
      "DataChanged": false,
      "ExpectedPlatformNo": "8",
      "arrivalDelay": "10 Min",
      "departureDelay": "10 Min",
      "Latitude": null,
      "Longitude": null,
      "stopNumberDisplay": 2.0
    },
    {
      "intermediateStations": [
        {
          "StationName": "Dahisar",
          "StationCode": "DIC",
          "ArrivalTime": "22:35",
          "DepartureTime": "22:35",
          "HaltMinutes": "&nbsp;",
          "Day": 1,
          "Latitude": 19.25007,
          "Longitude": 72.85917,
          "stopNumberDisplay": "3.1",
          "Distance": "20.8"
        },
        {
          "StationName": "Mira Road",
          "StationCode": "MIRA",
          "ArrivalTime": "22:38",
          "DepartureTime": "22:38",
          "HaltMinutes": "&nbsp;",
          "Day": 1,
          "Latitude": 19.27972,
          "Longitude": 72.85612,
          "stopNumberDisplay": "3.2",
          "Distance": "24.1"
        },
        {
          "StationName": "Bhayandar",
          "StationCode": "BYR",
          "ArrivalTime": "22:41",
          "DepartureTime": "22:41",
          "HaltMinutes": "&nbsp;",
          "Day": 1,
          "Latitude": 19.31093,
          "Longitude": 72.8526,
          "stopNumberDisplay": "3.3",
          "Distance": "27.6"
        },
        {
          "StationName": "Naigaon",
          "StationCode": "NIG",
          "ArrivalTime": "22:45",
          "DepartureTime": "22:45",
          "HaltMinutes": "&nbsp;",
          "Day": 1,
          "Latitude": 19.35147,
          "Longitude": 72.84621,
          "stopNumberDisplay": "3.4",
          "Distance": "32.2"
        },
        {
          "StationName": "Vasai Road",
          "StationCode": "BSR",
          "ArrivalTime": "22:48",
          "DepartureTime": "22:48",
          "HaltMinutes": "&nbsp;",
          "Day": 1,
          "Latitude": null,
          "Longitude": null,
          "stopNumberDisplay": "3.5",
          "Distance": "36.0"
        },
        {
          "StationName": "Nalla Sopara",
          "StationCode": "NSP",
          "ArrivalTime": "22:52",
          "DepartureTime": "22:52",
          "HaltMinutes": "&nbsp;",
          "Day": 1,
          "Latitude": 19.4174,
          "Longitude": 72.819,
          "stopNumberDisplay": "3.6",
          "Distance": "40.1"
        },
        {
          "StationName": "Virar Carshed",
          "StationCode": "VCSV",
          "ArrivalTime": "22:53",
          "DepartureTime": "22:53",
          "HaltMinutes": "&nbsp;",
          "Day": 1,
          "Latitude": null,
          "Longitude": null,
          "stopNumberDisplay": "3.7",
          "Distance": "42.0"
        },
        {
          "StationName": "Virar",
          "StationCode": "VR",
          "ArrivalTime": "22:55",
          "DepartureTime": "22:55",
          "HaltMinutes": "&nbsp;",
          "Day": 1,
          "Latitude": null,
          "Longitude": null,
          "stopNumberDisplay": "3.8",
          "Distance": "44.3"
        },
        {
          "StationName": "Vaitarna",
          "StationCode": "VTN",
          "ArrivalTime": "23:03",
          "DepartureTime": "23:03",
          "HaltMinutes": "&nbsp;",
          "Day": 1,
          "Latitude": 19.5179,
          "Longitude": 72.8502,
          "stopNumberDisplay": "3.9",
          "Distance": "52.9"
        },
        {
          "StationName": "Saphale",
          "StationCode": "SAH",
          "ArrivalTime": "23:10",
          "DepartureTime": "23:10",
          "HaltMinutes": "&nbsp;",
          "Day": 1,
          "Latitude": 19.5767,
          "Longitude": 72.8219,
          "stopNumberDisplay": "3.10",
          "Distance": "60.7"
        },
        {
          "StationName": "Kelve Road",
          "StationCode": "KLV",
          "ArrivalTime": "23:15",
          "DepartureTime": "23:15",
          "HaltMinutes": "&nbsp;",
          "Day": 1,
          "Latitude": 19.6246,
          "Longitude": 72.7911,
          "stopNumberDisplay": "3.11",
          "Distance": "67.0"
        },
        {
          "StationName": "Palghar",
          "StationCode": "PLG",
          "ArrivalTime": "23:22",
          "DepartureTime": "23:22",
          "HaltMinutes": "&nbsp;",
          "Day": 1,
          "Latitude": null,
          "Longitude": null,
          "stopNumberDisplay": "3.12",
          "Distance": "75.4"
        },
        {
          "StationName": "Umroli",
          "StationCode": "UOI",
          "ArrivalTime": "23:28",
          "DepartureTime": "23:28",
          "HaltMinutes": "&nbsp;",
          "Day": 1,
          "Latitude": 19.7544,
          "Longitude": 72.7604,
          "stopNumberDisplay": "3.13",
          "Distance": "82.0"
        }
      ],
      "TrainNo": 19037,
      "StationCode": "BVI",
      "RouteNo": 1,
      "StopNumber": 3,
      "TrainMappingKey": "99190373",
      "StationName": "BORIVALI",
      "ArrivalTime": "22:28",
      "DepartureTime": "22:33",
      "HaltMinutes": "05:00",
      "Distance": "19",
      "HasWifi": false,
      "Day": 1,
      "DataChanged": false,
      "ExpectedPlatformNo": "8",
      "arrivalDelay": "10 Min",
      "departureDelay": "10 Min",
      "Latitude": null,
      "Longitude": null,
      "stopNumberDisplay": 3.0
    },
    {
      "intermediateStations": [
        {
          "StationName": "Vangaon",
          "StationCode": "VGN",
          "ArrivalTime": "23:39",
          "DepartureTime": "23:39",
          "HaltMinutes": "&nbsp;",
          "Day": 1,
          "Latitude": 19.883,
          "Longitude": 72.7633,
          "stopNumberDisplay": "4.1",
          "Distance": "96.1"
        },
        {
          "StationName": "Dahanu Road",
          "StationCode": "DRD",
          "ArrivalTime": "23:47",
          "DepartureTime": "23:47",
          "HaltMinutes": "&nbsp;",
          "Day": 1,
          "Latitude": null,
          "Longitude": null,
          "stopNumberDisplay": "4.2",
          "Distance": "108.4"
        },
        {
          "StationName": "Gholvad",
          "StationCode": "GVD",
          "ArrivalTime": "23:53",
          "DepartureTime": "23:53",
          "HaltMinutes": "&nbsp;",
          "Day": 1,
          "Latitude": 20.087,
          "Longitude": 72.7381,
          "stopNumberDisplay": "4.3",
          "Distance": "119.6"
        },
        {
          "StationName": "Bordi Road",
          "StationCode": "BRRD",
          "ArrivalTime": "23:56",
          "DepartureTime": "23:56",
          "HaltMinutes": "&nbsp;",
          "Day": 1,
          "Latitude": 20.12249,
          "Longitude": 72.766,
          "stopNumberDisplay": "4.4",
          "Distance": "124.5"
        },
        {
          "StationName": "Umargam Road",
          "StationCode": "UBR",
          "ArrivalTime": "23:59",
          "DepartureTime": "23:59",
          "HaltMinutes": "&nbsp;",
          "Day": 1,
          "Latitude": 20.1533,
          "Longitude": 72.7904,
          "stopNumberDisplay": "4.5",
          "Distance": "128.9"
        },
        {
          "StationName": "Sanjan",
          "StationCode": "SJN",
          "ArrivalTime": "00:02",
          "DepartureTime": "00:02",
          "HaltMinutes": "&nbsp;",
          "Day": 2,
          "Latitude": 20.192,
          "Longitude": 72.821,
          "stopNumberDisplay": "4.6",
          "Distance": "134.1"
        },
        {
          "StationName": "Bhilad",
          "StationCode": "BLD",
          "ArrivalTime": "00:08",
          "DepartureTime": "00:08",
          "HaltMinutes": "&nbsp;",
          "Day": 2,
          "Latitude": 20.2755,
          "Longitude": 72.8875,
          "stopNumberDisplay": "4.7",
          "Distance": "145.6"
        },
        {
          "StationName": "Karambeli",
          "StationCode": "KEB",
          "ArrivalTime": "00:11",
          "DepartureTime": "00:11",
          "HaltMinutes": "&nbsp;",
          "Day": 2,
          "Latitude": 20.3159,
          "Longitude": 72.90139,
          "stopNumberDisplay": "4.8",
          "Distance": "150.5"
        }
      ],
      "TrainNo": 19037,
      "StationCode": "BOR",
      "RouteNo": 1,
      "StopNumber": 4,
      "TrainMappingKey": "99190374",
      "StationName": "BOISAR",
      "ArrivalTime": "23:32",
      "DepartureTime": "23:34",
      "HaltMinutes": "02:00",
      "Distance": "88",
      "HasWifi": false,
      "Day": 1,
      "DataChanged": false,
      "ExpectedPlatformNo": "2",
      "arrivalDelay": "10 Min",
      "departureDelay": "10 Min",
      "Latitude": null,
      "Longitude": null,
      "stopNumberDisplay": 4.0
    },
    {
      "intermediateStations": [
        {
          "StationName": "Bagwada",
          "StationCode": "BAGD",
          "ArrivalTime": "00:24",
          "DepartureTime": "00:24",
          "HaltMinutes": "&nbsp;",
          "Day": 2,
          "Latitude": 20.4334,
          "Longitude": 72.9162,
          "stopNumberDisplay": "5.1",
          "Distance": "163.8"
        },
        {
          "StationName": "Udvada",
          "StationCode": "UVD",
          "ArrivalTime": "00:26",
          "DepartureTime": "00:26",
          "HaltMinutes": "&nbsp;",
          "Day": 2,
          "Latitude": 20.4593,
          "Longitude": 72.9191,
          "stopNumberDisplay": "5.2",
          "Distance": "166.8"
        },
        {
          "StationName": "Pardi",
          "StationCode": "PAD",
          "ArrivalTime": "00:32",
          "DepartureTime": "00:32",
          "HaltMinutes": "&nbsp;",
          "Day": 2,
          "Latitude": 20.51288,
          "Longitude": 72.9243,
          "stopNumberDisplay": "5.3",
          "Distance": "172.6"
        },
        {
          "StationName": "Atul",
          "StationCode": "ATUL",
          "ArrivalTime": "00:36",
          "DepartureTime": "00:36",
          "HaltMinutes": "&nbsp;",
          "Day": 2,
          "Latitude": 20.5485,
          "Longitude": 72.9277,
          "stopNumberDisplay": "5.4",
          "Distance": "176.3"
        }
      ],
      "TrainNo": 19037,
      "StationCode": "VAPI",
      "RouteNo": 1,
      "StopNumber": 5,
      "TrainMappingKey": "99190375",
      "StationName": "VAPI",
      "ArrivalTime": "00:15",
      "DepartureTime": "00:17",
      "HaltMinutes": "02:00",
      "Distance": "159",
      "HasWifi": true,
      "Day": 2,
      "DataChanged": false,
      "ExpectedPlatformNo": "1",
      "arrivalDelay": "18 Min",
      "departureDelay": "18 Min",
      "Latitude": 20.3735,
      "Longitude": 72.9089,
      "stopNumberDisplay": 5.0
    },
    {
      "intermediateStations": [
        {
          "StationName": "Dungri",
          "StationCode": "DGI",
          "ArrivalTime": "00:55",
          "DepartureTime": "00:55",
          "HaltMinutes": "&nbsp;",
          "Day": 2,
          "Latitude": 20.6874,
          "Longitude": 72.9491,
          "stopNumberDisplay": "6.1",
          "Distance": "192.1"
        },
        {
          "StationName": "Joravasan",
          "StationCode": "JRS",
          "ArrivalTime": "01:01",
          "DepartureTime": "01:01",
          "HaltMinutes": "&nbsp;",
          "Day": 2,
          "Latitude": 20.7301,
          "Longitude": 72.9663,
          "stopNumberDisplay": "6.2",
          "Distance": "197.2"
        },
        {
          "StationName": "Bilimora Jn",
          "StationCode": "BIM",
          "ArrivalTime": "01:05",
          "DepartureTime": "01:05",
          "HaltMinutes": "&nbsp;",
          "Day": 2,
          "Latitude": 20.76552,
          "Longitude": 72.97026,
          "stopNumberDisplay": "6.3",
          "Distance": "201.3"
        },
        {
          "StationName": "Amalsad",
          "StationCode": "AML",
          "ArrivalTime": "01:12",
          "DepartureTime": "01:12",
          "HaltMinutes": "&nbsp;",
          "Day": 2,
          "Latitude": 20.81179,
          "Longitude": 72.95583,
          "stopNumberDisplay": "6.4",
          "Distance": "206.6"
        },
        {
          "StationName": "Ancheli",
          "StationCode": "ACL",
          "ArrivalTime": "01:16",
          "DepartureTime": "01:16",
          "HaltMinutes": "&nbsp;",
          "Day": 2,
          "Latitude": 20.84535,
          "Longitude": 72.94538,
          "stopNumberDisplay": "6.5",
          "Distance": "210.5"
        },
        {
          "StationName": "Vedchha",
          "StationCode": "VDH",
          "ArrivalTime": "01:20",
          "DepartureTime": "01:20",
          "HaltMinutes": "&nbsp;",
          "Day": 2,
          "Latitude": 20.87411,
          "Longitude": 72.93649,
          "stopNumberDisplay": "6.6",
          "Distance": "213.9"
        },
        {
          "StationName": "Hansapore",
          "StationCode": "HXR",
          "ArrivalTime": "01:25",
          "DepartureTime": "01:25",
          "HaltMinutes": "&nbsp;",
          "Day": 2,
          "Latitude": 20.90781,
          "Longitude": 72.92586,
          "stopNumberDisplay": "6.7",
          "Distance": "217.7"
        },
        {
          "StationName": "Gandhi Smriti",
          "StationCode": "GNST",
          "ArrivalTime": "01:27",
          "DepartureTime": "01:27",
          "HaltMinutes": "&nbsp;",
          "Day": 2,
          "Latitude": 20.91952,
          "Longitude": 72.9222,
          "stopNumberDisplay": "6.8",
          "Distance": "219.2"
        },
        {
          "StationName": "Navsari",
          "StationCode": "NVS",
          "ArrivalTime": "01:30",
          "DepartureTime": "01:30",
          "HaltMinutes": "&nbsp;",
          "Day": 2,
          "Latitude": 20.94739,
          "Longitude": 72.9135,
          "stopNumberDisplay": "6.9",
          "Distance": "222.4"
        },
        {
          "StationName": "Maroli",
          "StationCode": "MRL",
          "ArrivalTime": "01:40",
          "DepartureTime": "01:40",
          "HaltMinutes": "&nbsp;",
          "Day": 2,
          "Latitude": 21.0202,
          "Longitude": 72.89063,
          "stopNumberDisplay": "6.10",
          "Distance": "230.8"
        },
        {
          "StationName": "Sachin",
          "StationCode": "SCH",
          "ArrivalTime": "01:48",
          "DepartureTime": "01:48",
          "HaltMinutes": "&nbsp;",
          "Day": 2,
          "Latitude": 21.07791,
          "Longitude": 72.87455,
          "stopNumberDisplay": "6.11",
          "Distance": "237.4"
        },
        {
          "StationName": "Bhestan",
          "StationCode": "BHET",
          "ArrivalTime": "01:54",
          "DepartureTime": "01:54",
          "HaltMinutes": "&nbsp;",
          "Day": 2,
          "Latitude": 21.12253,
          "Longitude": 72.86329,
          "stopNumberDisplay": "6.12",
          "Distance": "242.5"
        },
        {
          "StationName": "Udhna Bypass Cabin",
          "StationCode": "XX-UDNB",
          "ArrivalTime": "01:57",
          "DepartureTime": "01:57",
          "HaltMinutes": "&nbsp;",
          "Day": 2,
          "Latitude": 21.141529,
          "Longitude": 72.858531,
          "stopNumberDisplay": "6.13",
          "Distance": "244.8"
        },
        {
          "StationName": "Udhna Jn",
          "StationCode": "UDN",
          "ArrivalTime": "02:00",
          "DepartureTime": "02:00",
          "HaltMinutes": "&nbsp;",
          "Day": 2,
          "Latitude": null,
          "Longitude": null,
          "stopNumberDisplay": "6.14",
          "Distance": "247.9"
        }
      ],
      "TrainNo": 19037,
      "StationCode": "BL",
      "RouteNo": 1,
      "StopNumber": 6,
      "TrainMappingKey": "99190376",
      "StationName": "VALSAD",
      "ArrivalTime": "00:42",
      "DepartureTime": "00:44",
      "HaltMinutes": "02:00",
      "Distance": "183",
      "HasWifi": true,
      "Day": 2,
      "DataChanged": false,
      "ExpectedPlatformNo": "2",
      "arrivalDelay": "15 Min",
      "departureDelay": "15 Min",
      "Latitude": 20.6085,
      "Longitude": 72.934,
      "stopNumberDisplay": 6.0
    },
    {
      "intermediateStations": [
        {
          "StationName": "Utran",
          "StationCode": "URN",
          "ArrivalTime": "02:12",
          "DepartureTime": "02:12",
          "HaltMinutes": "&nbsp;",
          "Day": 2,
          "Latitude": 21.233505,
          "Longitude": 72.855276,
          "stopNumberDisplay": "7.1",
          "Distance": "255.6"
        },
        {
          "StationName": "Kosad",
          "StationCode": "KSE",
          "ArrivalTime": "02:14",
          "DepartureTime": "02:14",
          "HaltMinutes": "&nbsp;",
          "Day": 2,
          "Latitude": 21.261446,
          "Longitude": 72.867772,
          "stopNumberDisplay": "7.2",
          "Distance": "259.0"
        },
        {
          "StationName": "Gothangam",
          "StationCode": "GTX",
          "ArrivalTime": "02:16",
          "DepartureTime": "02:16",
          "HaltMinutes": "&nbsp;",
          "Day": 2,
          "Latitude": 21.290797,
          "Longitude": 72.879292,
          "stopNumberDisplay": "7.3",
          "Distance": "262.5"
        },
        {
          "StationName": "Sayan",
          "StationCode": "SYN",
          "ArrivalTime": "02:18",
          "DepartureTime": "02:18",
          "HaltMinutes": "&nbsp;",
          "Day": 2,
          "Latitude": 21.317108,
          "Longitude": 72.890153,
          "stopNumberDisplay": "7.4",
          "Distance": "265.6"
        },
        {
          "StationName": "Kudsad",
          "StationCode": "KDSD",
          "ArrivalTime": "02:23",
          "DepartureTime": "02:23",
          "HaltMinutes": "&nbsp;",
          "Day": 2,
          "Latitude": 21.376695,
          "Longitude": 72.916344,
          "stopNumberDisplay": "7.5",
          "Distance": "272.8"
        },
        {
          "StationName": "Kim",
          "StationCode": "KIM",
          "ArrivalTime": "02:24",
          "DepartureTime": "02:24",
          "HaltMinutes": "&nbsp;",
          "Day": 2,
          "Latitude": 21.399751,
          "Longitude": 72.926518,
          "stopNumberDisplay": "7.6",
          "Distance": "275.5"
        },
        {
          "StationName": "Kosamba Jn",
          "StationCode": "KSB",
          "ArrivalTime": "02:29",
          "DepartureTime": "02:29",
          "HaltMinutes": "&nbsp;",
          "Day": 2,
          "Latitude": 21.46404,
          "Longitude": 72.95478,
          "stopNumberDisplay": "7.7",
          "Distance": "283.3"
        },
        {
          "StationName": "Hathuran",
          "StationCode": "HAT",
          "ArrivalTime": "02:32",
          "DepartureTime": "02:32",
          "HaltMinutes": "&nbsp;",
          "Day": 2,
          "Latitude": 21.5012,
          "Longitude": 72.9698,
          "stopNumberDisplay": "7.8",
          "Distance": "287.7"
        },
        {
          "StationName": "Panoli",
          "StationCode": "PAO",
          "ArrivalTime": "02:34",
          "DepartureTime": "02:34",
          "HaltMinutes": "&nbsp;",
          "Day": 2,
          "Latitude": 21.5351,
          "Longitude": 72.9781,
          "stopNumberDisplay": "7.9",
          "Distance": "291.5"
        },
        {
          "StationName": "Sanjali",
          "StationCode": "SNJL",
          "ArrivalTime": "02:37",
          "DepartureTime": "02:37",
          "HaltMinutes": "&nbsp;",
          "Day": 2,
          "Latitude": 21.572,
          "Longitude": 72.9877,
          "stopNumberDisplay": "7.10",
          "Distance": "296.2"
        }
      ],
      "TrainNo": 19037,
      "StationCode": "ST",
      "RouteNo": 1,
      "StopNumber": 7,
      "TrainMappingKey": "99190377",
      "StationName": "SURAT",
      "ArrivalTime": "02:05",
      "DepartureTime": "02:10",
      "HaltMinutes": "05:00",
      "Distance": "252",
      "HasWifi": true,
      "Day": 2,
      "DataChanged": false,
      "ExpectedPlatformNo": "1",
      "arrivalDelay": "07 Min",
      "departureDelay": "07 Min",
      "Latitude": 21.205022,
      "Longitude": 72.840901,
      "stopNumberDisplay": 7.0
    },
    {
      "intermediateStations": [
        {
          "StationName": "Concor Depot",
          "StationCode": "CCTA",
          "ArrivalTime": "02:43",
          "DepartureTime": "02:43",
          "HaltMinutes": "&nbsp;",
          "Day": 2,
          "Latitude": 21.63143,
          "Longitude": 73.00292,
          "stopNumberDisplay": "8.1",
          "Distance": "302.5"
        },
        {
          "StationName": "Bharuch Jn",
          "StationCode": "BH",
          "ArrivalTime": "02:49",
          "DepartureTime": "02:49",
          "HaltMinutes": "&nbsp;",
          "Day": 2,
          "Latitude": 21.70339,
          "Longitude": 72.99966,
          "stopNumberDisplay": "8.2",
          "Distance": "311.1"
        },
        {
          "StationName": "Baruch Bypass Cabin",
          "StationCode": "XX-BHBC",
          "ArrivalTime": "02:50",
          "DepartureTime": "02:50",
          "HaltMinutes": "&nbsp;",
          "Day": 2,
          "Latitude": 21.714666,
          "Longitude": 72.997323,
          "stopNumberDisplay": "8.3",
          "Distance": "312.4"
        },
        {
          "StationName": "Chavaj",
          "StationCode": "CVJ",
          "ArrivalTime": "02:53",
          "DepartureTime": "02:53",
          "HaltMinutes": "&nbsp;",
          "Day": 2,
          "Latitude": 21.752306,
          "Longitude": 73.009915,
          "stopNumberDisplay": "8.4",
          "Distance": "316.8"
        },
        {
          "StationName": "Nabipur",
          "StationCode": "NIU",
          "ArrivalTime": "02:58",
          "DepartureTime": "02:58",
          "HaltMinutes": "&nbsp;",
          "Day": 2,
          "Latitude": 21.807108,
          "Longitude": 73.030348,
          "stopNumberDisplay": "8.5",
          "Distance": "323.3"
        },
        {
          "StationName": "Varediya",
          "StationCode": "VRE",
          "ArrivalTime": "03:04",
          "DepartureTime": "03:04",
          "HaltMinutes": "&nbsp;",
          "Day": 2,
          "Latitude": 21.867324,
          "Longitude": 73.052679,
          "stopNumberDisplay": "8.6",
          "Distance": "330.3"
        },
        {
          "StationName": "Palej",
          "StationCode": "PLJ",
          "ArrivalTime": "03:09",
          "DepartureTime": "03:09",
          "HaltMinutes": "&nbsp;",
          "Day": 2,
          "Latitude": 21.921196,
          "Longitude": 73.072526,
          "stopNumberDisplay": "8.7",
          "Distance": "336.6"
        },
        {
          "StationName": "Lakodra Dethan",
          "StationCode": "LKD",
          "ArrivalTime": "03:14",
          "DepartureTime": "03:14",
          "HaltMinutes": "&nbsp;",
          "Day": 2,
          "Latitude": 21.981534,
          "Longitude": 73.094759,
          "stopNumberDisplay": "8.8",
          "Distance": "343.7"
        },
        {
          "StationName": "Miyagam Karjan Jn",
          "StationCode": "MYG",
          "ArrivalTime": "03:20",
          "DepartureTime": "03:20",
          "HaltMinutes": "&nbsp;",
          "Day": 2,
          "Latitude": 22.05098,
          "Longitude": 73.12037,
          "stopNumberDisplay": "8.9",
          "Distance": "351.9"
        },
        {
          "StationName": "Kashipura Sarar",
          "StationCode": "KSPR",
          "ArrivalTime": "03:26",
          "DepartureTime": "03:26",
          "HaltMinutes": "&nbsp;",
          "Day": 2,
          "Latitude": 22.116319,
          "Longitude": 73.144475,
          "stopNumberDisplay": "8.10",
          "Distance": "359.5"
        },
        {
          "StationName": "Itola",
          "StationCode": "ITA",
          "ArrivalTime": "03:29",
          "DepartureTime": "03:29",
          "HaltMinutes": "&nbsp;",
          "Day": 2,
          "Latitude": 22.150368,
          "Longitude": 73.15709,
          "stopNumberDisplay": "8.11",
          "Distance": "363.5"
        },
        {
          "StationName": "Varnama",
          "StationCode": "VRM",
          "ArrivalTime": "03:32",
          "DepartureTime": "03:32",
          "HaltMinutes": "&nbsp;",
          "Day": 2,
          "Latitude": 22.183229999999998,
          "Longitude": 73.169239,
          "stopNumberDisplay": "8.12",
          "Distance": "367.4"
        },
        {
          "StationName": "Makarpura",
          "StationCode": "MPR",
          "ArrivalTime": "03:36",
          "DepartureTime": "03:36",
          "HaltMinutes": "&nbsp;",
          "Day": 2,
          "Latitude": 22.233391,
          "Longitude": 73.175825,
          "stopNumberDisplay": "8.13",
          "Distance": "373.1"
        },
        {
          "StationName": "Vishvamitri Jn",
          "StationCode": "VS",
          "ArrivalTime": "03:41",
          "DepartureTime": "03:41",
          "HaltMinutes": "&nbsp;",
          "Day": 2,
          "Latitude": 22.286138,
          "Longitude": 73.179021,
          "stopNumberDisplay": "8.14",
          "Distance": "378.7"
        }
      ],
      "TrainNo": 19037,
      "StationCode": "AKV",
      "RouteNo": 1,
      "StopNumber": 8,
      "TrainMappingKey": "99190378",
      "StationName": "ANKLESHWAR JN",
      "ArrivalTime": "02:40",
      "DepartureTime": "02:42",
      "HaltMinutes": "02:00",
      "Distance": "302",
      "HasWifi": true,
      "Day": 2,
      "DataChanged": false,
      "ExpectedPlatformNo": "1",
      "arrivalDelay": "08 Min",
      "departureDelay": "08 Min",
      "Latitude": 21.6264236,
      "Longitude": 73.0151984,
      "stopNumberDisplay": 8.0
    },
    {
      "intermediateStations": [
        {
          "StationName": "Vadodara D Cabin",
          "StationCode": "BRGY",
          "ArrivalTime": "03:56",
          "DepartureTime": "03:56",
          "HaltMinutes": "&nbsp;",
          "Day": 2,
          "Latitude": 22.31669,
          "Longitude": 73.17877,
          "stopNumberDisplay": "9.1",
          "Distance": "385.9"
        },
        {
          "StationName": "Vadodara E Cabin",
          "StationCode": "BRGZ",
          "ArrivalTime": "03:58",
          "DepartureTime": "03:58",
          "HaltMinutes": "&nbsp;",
          "Day": 2,
          "Latitude": 22.363641,
          "Longitude": 73.159238,
          "stopNumberDisplay": "9.2",
          "Distance": "387.7"
        },
        {
          "StationName": "Chhayapuri",
          "StationCode": "CYI",
          "ArrivalTime": "03:59",
          "DepartureTime": "03:59",
          "HaltMinutes": "&nbsp;",
          "Day": 2,
          "Latitude": 22.371365,
          "Longitude": 73.165568,
          "stopNumberDisplay": "9.3",
          "Distance": "389.3"
        },
        {
          "StationName": "Pilol",
          "StationCode": "PIO",
          "ArrivalTime": "04:04",
          "DepartureTime": "04:04",
          "HaltMinutes": "&nbsp;",
          "Day": 2,
          "Latitude": 22.415444,
          "Longitude": 73.209665,
          "stopNumberDisplay": "9.4",
          "Distance": "396.0"
        },
        {
          "StationName": "Alindra Road",
          "StationCode": "AIR",
          "ArrivalTime": "04:10",
          "DepartureTime": "04:10",
          "HaltMinutes": "&nbsp;",
          "Day": 2,
          "Latitude": 22.453455,
          "Longitude": 73.258106,
          "stopNumberDisplay": "9.5",
          "Distance": "402.5"
        },
        {
          "StationName": "Samlaya Jn",
          "StationCode": "SMLA",
          "ArrivalTime": "04:14",
          "DepartureTime": "04:14",
          "HaltMinutes": "&nbsp;",
          "Day": 2,
          "Latitude": 22.48485,
          "Longitude": 73.30217,
          "stopNumberDisplay": "9.6",
          "Distance": "408.3"
        },
        {
          "StationName": "Lotana",
          "StationCode": "LAN",
          "ArrivalTime": "04:19",
          "DepartureTime": "04:19",
          "HaltMinutes": "&nbsp;",
          "Day": 2,
          "Latitude": 22.512909,
          "Longitude": 73.347037,
          "stopNumberDisplay": "9.7",
          "Distance": "413.8"
        },
        {
          "StationName": "Champaner Road",
          "StationCode": "CPN",
          "ArrivalTime": "04:23",
          "DepartureTime": "04:23",
          "HaltMinutes": "&nbsp;",
          "Day": 2,
          "Latitude": 22.54127,
          "Longitude": 73.39292,
          "stopNumberDisplay": "9.8",
          "Distance": "419.5"
        },
        {
          "StationName": "Bakrol",
          "StationCode": "BKRL",
          "ArrivalTime": "04:28",
          "DepartureTime": "04:28",
          "HaltMinutes": "&nbsp;",
          "Day": 2,
          "Latitude": 22.587901,
          "Longitude": 73.41919,
          "stopNumberDisplay": "9.9",
          "Distance": "425.5"
        }
      ],
      "TrainNo": 19037,
      "StationCode": "BRC",
      "RouteNo": 1,
      "StopNumber": 9,
      "TrainMappingKey": "99190379",
      "StationName": "VADODARA JN",
      "ArrivalTime": "03:43",
      "DepartureTime": "03:53",
      "HaltMinutes": "10:00",
      "Distance": "381",
      "HasWifi": true,
      "Day": 2,
      "DataChanged": false,
      "ExpectedPlatformNo": "4",
      "arrivalDelay": "13 Min",
      "departureDelay": "13 Min",
      "Latitude": 22.3071588,
      "Longitude": 73.1812187,
      "stopNumberDisplay": 9.0
    },
    {
      "intermediateStations": [
        {
          "StationName": "Baheriya Road",
          "StationCode": "BOA",
          "ArrivalTime": "04:43",
          "DepartureTime": "04:43",
          "HaltMinutes": "&nbsp;",
          "Day": 2,
          "Latitude": null,
          "Longitude": null,
          "stopNumberDisplay": "10.1",
          "Distance": "438.7"
        },
        {
          "StationName": "Kharsaliya",
          "StationCode": "KRSA",
          "ArrivalTime": "04:50",
          "DepartureTime": "04:50",
          "HaltMinutes": "&nbsp;",
          "Day": 2,
          "Latitude": 22.704803,
          "Longitude": 73.554447,
          "stopNumberDisplay": "10.2",
          "Distance": "444.8"
        }
      ],
      "TrainNo": 19037,
      "StationCode": "DRL",
      "RouteNo": 1,
      "StopNumber": 10,
      "TrainMappingKey": "991903710",
      "StationName": "DEROL",
      "ArrivalTime": "04:33",
      "DepartureTime": "04:35",
      "HaltMinutes": "02:00",
      "Distance": "432",
      "HasWifi": false,
      "Day": 2,
      "DataChanged": false,
      "ExpectedPlatformNo": null,
      "arrivalDelay": "-",
      "departureDelay": "-",
      "Latitude": 22.629918,
      "Longitude": 73.462162,
      "stopNumberDisplay": 10.0
    },
    {
      "intermediateStations": [
        {
          "StationName": "Kansudhi",
          "StationCode": "KIZ",
          "ArrivalTime": "05:08",
          "DepartureTime": "05:08",
          "HaltMinutes": "&nbsp;",
          "Day": 2,
          "Latitude": 22.788827,
          "Longitude": 73.647706,
          "stopNumberDisplay": "11.1",
          "Distance": "460.0"
        },
        {
          "StationName": "Chanchelav",
          "StationCode": "CCL",
          "ArrivalTime": "05:13",
          "DepartureTime": "05:13",
          "HaltMinutes": "&nbsp;",
          "Day": 2,
          "Latitude": 22.796285,
          "Longitude": 73.714171,
          "stopNumberDisplay": "11.2",
          "Distance": "467.0"
        },
        {
          "StationName": "Sant Road",
          "StationCode": "SAT",
          "ArrivalTime": "05:18",
          "DepartureTime": "05:18",
          "HaltMinutes": "&nbsp;",
          "Day": 2,
          "Latitude": 22.795454,
          "Longitude": 73.801348,
          "stopNumberDisplay": "11.3",
          "Distance": "475.9"
        },
        {
          "StationName": "Piplod",
          "StationCode": "PPD",
          "ArrivalTime": "05:26",
          "DepartureTime": "05:26",
          "HaltMinutes": "&nbsp;",
          "Day": 2,
          "Latitude": 22.819104,
          "Longitude": 73.910288,
          "stopNumberDisplay": "11.4",
          "Distance": "487.8"
        },
        {
          "StationName": "Limkheda",
          "StationCode": "LMK",
          "ArrivalTime": "05:31",
          "DepartureTime": "05:31",
          "HaltMinutes": "&nbsp;",
          "Day": 2,
          "Latitude": 22.834705,
          "Longitude": 73.98449,
          "stopNumberDisplay": "11.5",
          "Distance": "495.7"
        },
        {
          "StationName": "Mangal Mahudi",
          "StationCode": "MAM",
          "ArrivalTime": "05:38",
          "DepartureTime": "05:38",
          "HaltMinutes": "&nbsp;",
          "Day": 2,
          "Latitude": 22.83696,
          "Longitude": 74.057294,
          "stopNumberDisplay": "11.6",
          "Distance": "505.3"
        },
        {
          "StationName": "Usra",
          "StationCode": "USRA",
          "ArrivalTime": "05:41",
          "DepartureTime": "05:41",
          "HaltMinutes": "&nbsp;",
          "Day": 2,
          "Latitude": 22.848663,
          "Longitude": 74.103164,
          "stopNumberDisplay": "11.7",
          "Distance": "510.8"
        },
        {
          "StationName": "Jekot",
          "StationCode": "JKT",
          "ArrivalTime": "05:46",
          "DepartureTime": "05:46",
          "HaltMinutes": "&nbsp;",
          "Day": 2,
          "Latitude": 22.865766,
          "Longitude": 74.159611,
          "stopNumberDisplay": "11.8",
          "Distance": "518.2"
        },
        {
          "StationName": "Rentia",
          "StationCode": "RET",
          "ArrivalTime": "05:50",
          "DepartureTime": "05:50",
          "HaltMinutes": "&nbsp;",
          "Day": 2,
          "Latitude": 22.862961,
          "Longitude": 74.210484,
          "stopNumberDisplay": "11.9",
          "Distance": "523.7"
        }
      ],
      "TrainNo": 19037,
      "StationCode": "GDA",
      "RouteNo": 1,
      "StopNumber": 11,
      "TrainMappingKey": "991903711",
      "StationName": "GODHRA JN",
      "ArrivalTime": "05:02",
      "DepartureTime": "05:05",
      "HaltMinutes": "03:00",
      "Distance": "455",
      "HasWifi": false,
      "Day": 2,
      "DataChanged": false,
      "ExpectedPlatformNo": "2",
      "arrivalDelay": "09 Min",
      "departureDelay": "09 Min",
      "Latitude": 22.77674,
      "Longitude": 73.60612,
      "stopNumberDisplay": 11.0
    },
    {
      "intermediateStations": [
        {
          "StationName": "Dhamarda",
          "StationCode": "DHMA",
          "ArrivalTime": "05:59",
          "DepartureTime": "05:59",
          "HaltMinutes": "&nbsp;",
          "Day": 2,
          "Latitude": 22.84807,
          "Longitude": 74.29944,
          "stopNumberDisplay": "12.1",
          "Distance": "533.6"
        },
        {
          "StationName": "Bordi",
          "StationCode": "BIO",
          "ArrivalTime": "06:03",
          "DepartureTime": "06:03",
          "HaltMinutes": "&nbsp;",
          "Day": 2,
          "Latitude": 22.86667,
          "Longitude": 74.3481,
          "stopNumberDisplay": "12.2",
          "Distance": "539.3"
        },
        {
          "StationName": "Anas",
          "StationCode": "ANAS",
          "ArrivalTime": "06:08",
          "DepartureTime": "06:08",
          "HaltMinutes": "&nbsp;",
          "Day": 2,
          "Latitude": 22.86545,
          "Longitude": 74.42147,
          "stopNumberDisplay": "12.3",
          "Distance": "547.2"
        },
        {
          "StationName": "Nahargarh",
          "StationCode": "NRH",
          "ArrivalTime": "06:15",
          "DepartureTime": "06:15",
          "HaltMinutes": "&nbsp;",
          "Day": 2,
          "Latitude": 22.8732,
          "Longitude": 74.50003,
          "stopNumberDisplay": "12.4",
          "Distance": "555.9"
        }
      ],
      "TrainNo": 19037,
      "StationCode": "DHD",
      "RouteNo": 1,
      "StopNumber": 12,
      "TrainMappingKey": "991903712",
      "StationName": "DAHOD",
      "ArrivalTime": "05:53",
      "DepartureTime": "05:55",
      "HaltMinutes": "02:00",
      "Distance": "529",
      "HasWifi": false,
      "Day": 2,
      "DataChanged": false,
      "ExpectedPlatformNo": "3",
      "arrivalDelay": "13 Min",
      "departureDelay": "13 Min",
      "Latitude": 22.844,
      "Longitude": 74.25369,
      "stopNumberDisplay": 12.0
    },
    {
      "intermediateStations": [
        {
          "StationName": "Thandla Road",
          "StationCode": "THDR",
          "ArrivalTime": "06:28",
          "DepartureTime": "06:28",
          "HaltMinutes": "&nbsp;",
          "Day": 2,
          "Latitude": 22.963,
          "Longitude": 74.5895,
          "stopNumberDisplay": "13.1",
          "Distance": "569.9"
        },
        {
          "StationName": "Bajrang Garh",
          "StationCode": "BJG",
          "ArrivalTime": "06:34",
          "DepartureTime": "06:34",
          "HaltMinutes": "&nbsp;",
          "Day": 2,
          "Latitude": 22.98794,
          "Longitude": 74.64387,
          "stopNumberDisplay": "13.2",
          "Distance": "576.8"
        },
        {
          "StationName": "Panch Piplia",
          "StationCode": "PCN",
          "ArrivalTime": "06:39",
          "DepartureTime": "06:39",
          "HaltMinutes": "&nbsp;",
          "Day": 2,
          "Latitude": 23.03264,
          "Longitude": 74.66686,
          "stopNumberDisplay": "13.3",
          "Distance": "583.7"
        },
        {
          "StationName": "Amargarh",
          "StationCode": "AGR",
          "ArrivalTime": "06:47",
          "DepartureTime": "06:47",
          "HaltMinutes": "&nbsp;",
          "Day": 2,
          "Latitude": 23.063368,
          "Longitude": 74.737562,
          "stopNumberDisplay": "13.4",
          "Distance": "593.2"
        }
      ],
      "TrainNo": 19037,
      "StationCode": "MGN",
      "RouteNo": 1,
      "StopNumber": 13,
      "TrainMappingKey": "991903713",
      "StationName": "MEGHNAGAR",
      "ArrivalTime": "06:19",
      "DepartureTime": "06:21",
      "HaltMinutes": "02:00",
      "Distance": "562",
      "HasWifi": false,
      "Day": 2,
      "DataChanged": false,
      "ExpectedPlatformNo": "1",
      "arrivalDelay": "16 Min",
      "departureDelay": "16 Min",
      "Latitude": 22.90724,
      "Longitude": 74.53962,
      "stopNumberDisplay": 13.0
    },
    {
      "intermediateStations": [
        {
          "StationName": "Bhairongarh",
          "StationCode": "BOG",
          "ArrivalTime": "07:00",
          "DepartureTime": "07:00",
          "HaltMinutes": "&nbsp;",
          "Day": 2,
          "Latitude": 23.145154,
          "Longitude": 74.776991,
          "stopNumberDisplay": "14.1",
          "Distance": "603.4"
        },
        {
          "StationName": "Raoti",
          "StationCode": "RTI",
          "ArrivalTime": "07:14",
          "DepartureTime": "07:14",
          "HaltMinutes": "&nbsp;",
          "Day": 2,
          "Latitude": 23.183985,
          "Longitude": 74.879249,
          "stopNumberDisplay": "14.2",
          "Distance": "615.3"
        },
        {
          "StationName": "Bildi",
          "StationCode": "BILD",
          "ArrivalTime": "07:22",
          "DepartureTime": "07:22",
          "HaltMinutes": "&nbsp;",
          "Day": 2,
          "Latitude": 23.225207,
          "Longitude": 74.918445,
          "stopNumberDisplay": "14.3",
          "Distance": "622.4"
        },
        {
          "StationName": "Morwani",
          "StationCode": "MRN",
          "ArrivalTime": "07:32",
          "DepartureTime": "07:32",
          "HaltMinutes": "&nbsp;",
          "Day": 2,
          "Latitude": 23.276113,
          "Longitude": 74.977944,
          "stopNumberDisplay": "14.4",
          "Distance": "631.4"
        },
        {
          "StationName": "Dr RK Nagar",
          "StationCode": "DRRN",
          "ArrivalTime": "07:39",
          "DepartureTime": "07:39",
          "HaltMinutes": "&nbsp;",
          "Day": 2,
          "Latitude": 23.318672,
          "Longitude": 75.015173,
          "stopNumberDisplay": "14.5",
          "Distance": "637.5"
        },
        {
          "StationName": "Ratlam A Cabin",
          "StationCode": "RTD",
          "ArrivalTime": "07:43",
          "DepartureTime": "07:43",
          "HaltMinutes": "&nbsp;",
          "Day": 2,
          "Latitude": 23.335433,
          "Longitude": 75.041432,
          "stopNumberDisplay": "14.6",
          "Distance": "640.9"
        }
      ],
      "TrainNo": 19037,
      "StationCode": "BMI",
      "RouteNo": 1,
      "StopNumber": 14,
      "TrainMappingKey": "991903714",
      "StationName": "BAMNIA",
      "ArrivalTime": "06:51",
      "DepartureTime": "06:53",
      "HaltMinutes": "02:00",
      "Distance": "597",
      "HasWifi": false,
      "Day": 2,
      "DataChanged": false,
      "ExpectedPlatformNo": "1",
      "arrivalDelay": "20 Min",
      "departureDelay": "20 Min",
      "Latitude": 23.09501,
      "Longitude": 74.758327,
      "stopNumberDisplay": 14.0
    },
    {
      "intermediateStations": [
        {
          "StationName": "Ratlam East Cabin",
          "StationCode": "RTME",
          "ArrivalTime": "07:58",
          "DepartureTime": "07:58",
          "HaltMinutes": "&nbsp;",
          "Day": 2,
          "Latitude": 23.36197,
          "Longitude": 75.07002,
          "stopNumberDisplay": "15.1",
          "Distance": "645.5"
        },
        {
          "StationName": "Bangrod",
          "StationCode": "BOD",
          "ArrivalTime": "08:03",
          "DepartureTime": "08:03",
          "HaltMinutes": "&nbsp;",
          "Day": 2,
          "Latitude": 23.39701,
          "Longitude": 75.12224,
          "stopNumberDisplay": "15.2",
          "Distance": "652.0"
        },
        {
          "StationName": "Runkhera",
          "StationCode": "RNH",
          "ArrivalTime": "08:10",
          "DepartureTime": "08:10",
          "HaltMinutes": "&nbsp;",
          "Day": 2,
          "Latitude": 23.41429,
          "Longitude": 75.18931,
          "stopNumberDisplay": "15.3",
          "Distance": "659.4"
        }
      ],
      "TrainNo": 19037,
      "StationCode": "RTM",
      "RouteNo": 1,
      "StopNumber": 15,
      "TrainMappingKey": "991903715",
      "StationName": "RATLAM JN",
      "ArrivalTime": "07:45",
      "DepartureTime": "07:55",
      "HaltMinutes": "10:00",
      "Distance": "642",
      "HasWifi": true,
      "Day": 2,
      "DataChanged": false,
      "ExpectedPlatformNo": "5",
      "arrivalDelay": "09 Min",
      "departureDelay": "09 Min",
      "Latitude": 23.34061,
      "Longitude": 75.0504,
      "stopNumberDisplay": 15.0
    },
    {
      "intermediateStations": [
        {
          "StationName": "Berawanya",
          "StationCode": "BRNA",
          "ArrivalTime": "08:35",
          "DepartureTime": "08:35",
          "HaltMinutes": "&nbsp;",
          "Day": 2,
          "Latitude": 23.46647,
          "Longitude": 75.33641,
          "stopNumberDisplay": "16.1",
          "Distance": "675.6"
        }
      ],
      "TrainNo": 19037,
      "StationCode": "KUH",
      "RouteNo": 1,
      "StopNumber": 16,
      "TrainMappingKey": "991903716",
      "StationName": "KHACHROD",
      "ArrivalTime": "08:19",
      "DepartureTime": "08:21",
      "HaltMinutes": "02:00",
      "Distance": "670",
      "HasWifi": false,
      "Day": 2,
      "DataChanged": false,
      "ExpectedPlatformNo": "2",
      "arrivalDelay": "09 Min",
      "departureDelay": "09 Min",
      "Latitude": 23.44283,
      "Longitude": 75.28632,
      "stopNumberDisplay": 16.0
    },
    {
      "intermediateStations": [
        {
          "StationName": "Rohal Khurd",
          "StationCode": "RLK",
          "ArrivalTime": "09:08",
          "DepartureTime": "09:08",
          "HaltMinutes": "&nbsp;",
          "Day": 2,
          "Latitude": 23.510861,
          "Longitude": 75.485576,
          "stopNumberDisplay": "17.1",
          "Distance": "694.1"
        }
      ],
      "TrainNo": 19037,
      "StationCode": "NAD",
      "RouteNo": 1,
      "StopNumber": 17,
      "TrainMappingKey": "991903717",
      "StationName": "NAGDA JN",
      "ArrivalTime": "08:55",
      "DepartureTime": "09:00",
      "HaltMinutes": "05:00",
      "Distance": "684",
      "HasWifi": true,
      "Day": 2,
      "DataChanged": false,
      "ExpectedPlatformNo": "1",
      "arrivalDelay": "-",
      "departureDelay": "-",
      "Latitude": 23.4562,
      "Longitude": 75.41238,
      "stopNumberDisplay": 17.0
    },
    {
      "intermediateStations": [
        {
          "StationName": "Luni Richha",
          "StationCode": "LNR",
          "ArrivalTime": "09:21",
          "DepartureTime": "09:21",
          "HaltMinutes": "&nbsp;",
          "Day": 2,
          "Latitude": 23.661213,
          "Longitude": 75.514447,
          "stopNumberDisplay": "18.1",
          "Distance": "711.3"
        }
      ],
      "TrainNo": 19037,
      "StationCode": "MEP",
      "RouteNo": 1,
      "StopNumber": 18,
      "TrainMappingKey": "991903718",
      "StationName": "MAHIDPUR ROAD",
      "ArrivalTime": "09:13",
      "DepartureTime": "09:15",
      "HaltMinutes": "02:00",
      "Distance": "701",
      "HasWifi": false,
      "Day": 2,
      "DataChanged": false,
      "ExpectedPlatformNo": null,
      "arrivalDelay": "-",
      "departureDelay": "-",
      "Latitude": 23.567594,
      "Longitude": 75.500331,
      "stopNumberDisplay": 18.0
    },
    {
      "intermediateStations": [
        {
          "StationName": "Thuria",
          "StationCode": "THUR",
          "ArrivalTime": "09:37",
          "DepartureTime": "09:37",
          "HaltMinutes": "&nbsp;",
          "Day": 2,
          "Latitude": 23.835584,
          "Longitude": 75.554995,
          "stopNumberDisplay": "19.1",
          "Distance": "732.2"
        },
        {
          "StationName": "Talavli",
          "StationCode": "TLZ",
          "ArrivalTime": "09:44",
          "DepartureTime": "09:44",
          "HaltMinutes": "&nbsp;",
          "Day": 2,
          "Latitude": 23.903334,
          "Longitude": 75.597443,
          "stopNumberDisplay": "19.2",
          "Distance": "741.1"
        }
      ],
      "TrainNo": 19037,
      "StationCode": "VMA",
      "RouteNo": 1,
      "StopNumber": 19,
      "TrainMappingKey": "991903719",
      "StationName": "VIKRAMGARH ALOT",
      "ArrivalTime": "09:28",
      "DepartureTime": "09:30",
      "HaltMinutes": "02:00",
      "Distance": "724",
      "HasWifi": false,
      "Day": 2,
      "DataChanged": false,
      "ExpectedPlatformNo": "2",
      "arrivalDelay": "08 Min",
      "departureDelay": "08 Min",
      "Latitude": 23.764842,
      "Longitude": 75.538386,
      "stopNumberDisplay": 19.0
    },
    {
      "intermediateStations": [
        {
          "StationName": "Nathukheri",
          "StationCode": "NKH",
          "ArrivalTime": "09:58",
          "DepartureTime": "09:58",
          "HaltMinutes": "&nbsp;",
          "Day": 2,
          "Latitude": 24.020101,
          "Longitude": 75.64375,
          "stopNumberDisplay": "20.1",
          "Distance": "756.0"
        }
      ],
      "TrainNo": 19037,
      "StationCode": "CMU",
      "RouteNo": 1,
      "StopNumber": 20,
      "TrainMappingKey": "991903720",
      "StationName": "CHAU MAHLA",
      "ArrivalTime": "09:48",
      "DepartureTime": "09:50",
      "HaltMinutes": "02:00",
      "Distance": "746",
      "HasWifi": false,
      "Day": 2,
      "DataChanged": false,
      "ExpectedPlatformNo": "2",
      "arrivalDelay": "08 Min",
      "departureDelay": "08 Min",
      "Latitude": 23.948749,
      "Longitude": 75.601379,
      "stopNumberDisplay": 20.0
    },
    {
      "intermediateStations": [
        {
          "StationName": "Hanspura",
          "StationCode": "HNU",
          "ArrivalTime": "10:11",
          "DepartureTime": "10:11",
          "HaltMinutes": "&nbsp;",
          "Day": 2,
          "Latitude": 24.131471,
          "Longitude": 75.647328,
          "stopNumberDisplay": "21.1",
          "Distance": "768.5"
        }
      ],
      "TrainNo": 19037,
      "StationCode": "SVA",
      "RouteNo": 1,
      "StopNumber": 21,
      "TrainMappingKey": "991903721",
      "StationName": "SUWASRA",
      "ArrivalTime": "10:03",
      "DepartureTime": "10:05",
      "HaltMinutes": "02:00",
      "Distance": "761",
      "HasWifi": false,
      "Day": 2,
      "DataChanged": false,
      "ExpectedPlatformNo": "2",
      "arrivalDelay": "-",
      "departureDelay": "-",
      "Latitude": 24.070023,
      "Longitude": 75.648634,
      "stopNumberDisplay": 21.0
    },
    {
      "intermediateStations": [],
      "TrainNo": 19037,
      "StationCode": "SGZ",
      "RouteNo": 1,
      "StopNumber": 22,
      "TrainMappingKey": "991903722",
      "StationName": "SHAMGARH",
      "ArrivalTime": "10:18",
      "DepartureTime": "10:20",
      "HaltMinutes": "02:00",
      "Distance": "775",
      "HasWifi": false,
      "Day": 2,
      "DataChanged": false,
      "ExpectedPlatformNo": null,
      "arrivalDelay": "21 Min",
      "departureDelay": "21 Min",
      "Latitude": 24.192088,
      "Longitude": 75.643383,
      "stopNumberDisplay": 22.0
    },
    {
      "intermediateStations": [
        {
          "StationName": "Kurlasi",
          "StationCode": "KRLS",
          "ArrivalTime": "10:36",
          "DepartureTime": "10:36",
          "HaltMinutes": "&nbsp;",
          "Day": 2,
          "Latitude": 24.355483,
          "Longitude": 75.728346,
          "stopNumberDisplay": "23.1",
          "Distance": "796.0"
        }
      ],
      "TrainNo": 19037,
      "StationCode": "GOH",
      "RouteNo": 1,
      "StopNumber": 23,
      "TrainMappingKey": "991903723",
      "StationName": "GAROT",
      "ArrivalTime": "10:28",
      "DepartureTime": "10:30",
      "HaltMinutes": "02:00",
      "Distance": "786",
      "HasWifi": false,
      "Day": 2,
      "DataChanged": false,
      "ExpectedPlatformNo": null,
      "arrivalDelay": "24 Min",
      "departureDelay": "24 Min",
      "Latitude": 24.278848,
      "Longitude": 75.684244,
      "stopNumberDisplay": 23.0
    },
    {
      "intermediateStations": [
        {
          "StationName": "Dhuankheri",
          "StationCode": "DKRA",
          "ArrivalTime": "10:52",
          "DepartureTime": "10:52",
          "HaltMinutes": "&nbsp;",
          "Day": 2,
          "Latitude": 24.492498,
          "Longitude": 75.890404,
          "stopNumberDisplay": "24.1",
          "Distance": "818.8"
        }
      ],
      "TrainNo": 19037,
      "StationCode": "BWM",
      "RouteNo": 1,
      "StopNumber": 24,
      "TrainMappingKey": "991903724",
      "StationName": "BHAWANI MANDI",
      "ArrivalTime": "10:43",
      "DepartureTime": "10:45",
      "HaltMinutes": "02:00",
      "Distance": "808",
      "HasWifi": false,
      "Day": 2,
      "DataChanged": false,
      "ExpectedPlatformNo": "2",
      "arrivalDelay": "25 Min",
      "departureDelay": "25 Min",
      "Latitude": 24.419478,
      "Longitude": 75.830181,
      "stopNumberDisplay": 24.0
    },
    {
      "intermediateStations": [],
      "TrainNo": 19037,
      "StationCode": "JHW",
      "RouteNo": 1,
      "StopNumber": 25,
      "TrainMappingKey": "991903725",
      "StationName": "JHALAWAR ROAD",
      "ArrivalTime": "10:57",
      "DepartureTime": "10:58",
      "HaltMinutes": "01:00",
      "Distance": "825",
      "HasWifi": false,
      "Day": 2,
      "DataChanged": false,
      "ExpectedPlatformNo": null,
      "arrivalDelay": "-",
      "departureDelay": "-",
      "Latitude": 24.541994,
      "Longitude": 75.920098,
      "stopNumberDisplay": 25.0
    },
    {
      "intermediateStations": [],
      "TrainNo": 19037,
      "StationCode": "RMA",
      "RouteNo": 1,
      "StopNumber": 26,
      "TrainMappingKey": "991903726",
      "StationName": "RAMGANJ MANDI",
      "ArrivalTime": "11:08",
      "DepartureTime": "11:10",
      "HaltMinutes": "02:00",
      "Distance": "836",
      "HasWifi": false,
      "Day": 2,
      "DataChanged": false,
      "ExpectedPlatformNo": "1",
      "arrivalDelay": "25 Min",
      "departureDelay": "25 Min",
      "Latitude": 24.64403,
      "Longitude": 75.93968,
      "stopNumberDisplay": 26.0
    },
    {
      "intermediateStations": [
        {
          "StationName": "Kanwalpura",
          "StationCode": "KIW",
          "ArrivalTime": "11:24",
          "DepartureTime": "11:24",
          "HaltMinutes": "&nbsp;",
          "Day": 2,
          "Latitude": 24.78071,
          "Longitude": 75.98287,
          "stopNumberDisplay": "27.1",
          "Distance": "852.6"
        },
        {
          "StationName": "Dara",
          "StationCode": "DARA",
          "ArrivalTime": "11:30",
          "DepartureTime": "11:30",
          "HaltMinutes": "&nbsp;",
          "Day": 2,
          "Latitude": 24.83188,
          "Longitude": 76.00692,
          "stopNumberDisplay": "27.2",
          "Distance": "861.2"
        },
        {
          "StationName": "Ravtha Road",
          "StationCode": "RDT",
          "ArrivalTime": "11:40",
          "DepartureTime": "11:40",
          "HaltMinutes": "&nbsp;",
          "Day": 2,
          "Latitude": 24.93546,
          "Longitude": 75.95765,
          "stopNumberDisplay": "27.3",
          "Distance": "874.2"
        },
        {
          "StationName": "Concor Depot Siding Ravtha Road",
          "StationCode": "CSRR",
          "ArrivalTime": "11:40",
          "DepartureTime": "11:40",
          "HaltMinutes": "&nbsp;",
          "Day": 2,
          "Latitude": 24.940161,
          "Longitude": 75.955304,
          "stopNumberDisplay": "27.4",
          "Distance": "874.8"
        },
        {
          "StationName": "Dhani Kasar",
          "StationCode": "DKQ",
          "ArrivalTime": "11:44",
          "DepartureTime": "11:44",
          "HaltMinutes": "&nbsp;",
          "Day": 2,
          "Latitude": 24.9876,
          "Longitude": 75.93283,
          "stopNumberDisplay": "27.5",
          "Distance": "880.5"
        },
        {
          "StationName": "Alniya",
          "StationCode": "ALNI",
          "ArrivalTime": "11:48",
          "DepartureTime": "11:48",
          "HaltMinutes": "&nbsp;",
          "Day": 2,
          "Latitude": 25.03227,
          "Longitude": 75.90926,
          "stopNumberDisplay": "27.6",
          "Distance": "886.1"
        },
        {
          "StationName": "Dadhdevi",
          "StationCode": "DDV",
          "ArrivalTime": "11:53",
          "DepartureTime": "11:53",
          "HaltMinutes": "&nbsp;",
          "Day": 2,
          "Latitude": 25.09218,
          "Longitude": 75.89501,
          "stopNumberDisplay": "27.7",
          "Distance": "892.9"
        }
      ],
      "TrainNo": 19037,
      "StationCode": "MKX",
      "RouteNo": 1,
      "StopNumber": 27,
      "TrainMappingKey": "991903727",
      "StationName": "MORAK",
      "ArrivalTime": "11:18",
      "DepartureTime": "11:20",
      "HaltMinutes": "02:00",
      "Distance": "847",
      "HasWifi": false,
      "Day": 2,
      "DataChanged": false,
      "ExpectedPlatformNo": null,
      "arrivalDelay": null,
      "departureDelay": null,
      "Latitude": 24.73087,
      "Longitude": 75.9736,
      "stopNumberDisplay": 27.0
    },
    {
      "intermediateStations": [
        {
          "StationName": "Kota South Cabin",
          "StationCode": "KTSC",
          "ArrivalTime": "12:07",
          "DepartureTime": "12:07",
          "HaltMinutes": "&nbsp;",
          "Day": 2,
          "Latitude": 25.19687,
          "Longitude": 75.88472,
          "stopNumberDisplay": "28.1",
          "Distance": "906.0"
        },
        {
          "StationName": "Kota Yard",
          "StationCode": "KTTY",
          "ArrivalTime": "12:08",
          "DepartureTime": "12:08",
          "HaltMinutes": "&nbsp;",
          "Day": 2,
          "Latitude": 25.20849,
          "Longitude": 75.88336,
          "stopNumberDisplay": "28.2",
          "Distance": "907.3"
        }
      ],
      "TrainNo": 19037,
      "StationCode": "DKNT",
      "RouteNo": 1,
      "StopNumber": 28,
      "TrainMappingKey": "991903728",
      "StationName": "DAKANIYA TALAV",
      "ArrivalTime": "11:58",
      "DepartureTime": "12:00",
      "HaltMinutes": "02:00",
      "Distance": "899",
      "HasWifi": false,
      "Day": 2,
      "DataChanged": false,
      "ExpectedPlatformNo": "1",
      "arrivalDelay": "21 Min",
      "departureDelay": "21 Min",
      "Latitude": 25.1458,
      "Longitude": 75.86583,
      "stopNumberDisplay": 28.0
    },
    {
      "intermediateStations": [
        {
          "StationName": "Kota C Cabin",
          "StationCode": "KCCN",
          "ArrivalTime": "12:21",
          "DepartureTime": "12:21",
          "HaltMinutes": "&nbsp;",
          "Day": 2,
          "Latitude": 25.237783,
          "Longitude": 75.879265,
          "stopNumberDisplay": "29.1",
          "Distance": "910.6"
        },
        {
          "StationName": "Gurla C Cabin",
          "StationCode": "GCCN",
          "ArrivalTime": "12:22",
          "DepartureTime": "12:22",
          "HaltMinutes": "&nbsp;",
          "Day": 2,
          "Latitude": 25.244277,
          "Longitude": 75.878364,
          "stopNumberDisplay": "29.2",
          "Distance": "911.3"
        },
        {
          "StationName": "Gurla Jn",
          "StationCode": "GQL",
          "ArrivalTime": "12:24",
          "DepartureTime": "12:24",
          "HaltMinutes": "&nbsp;",
          "Day": 2,
          "Latitude": 25.271397,
          "Longitude": 75.886071,
          "stopNumberDisplay": "29.3",
          "Distance": "914.5"
        },
        {
          "StationName": "Gurla N Cabin",
          "StationCode": "GNCN",
          "ArrivalTime": "12:26",
          "DepartureTime": "12:26",
          "HaltMinutes": "&nbsp;",
          "Day": 2,
          "Latitude": null,
          "Longitude": null,
          "stopNumberDisplay": "29.4",
          "Distance": "916.8"
        },
        {
          "StationName": "Gurla North",
          "StationCode": "GQLN",
          "ArrivalTime": "12:26",
          "DepartureTime": "12:26",
          "HaltMinutes": "&nbsp;",
          "Day": 2,
          "Latitude": 25.289726,
          "Longitude": 75.896684,
          "stopNumberDisplay": "29.5",
          "Distance": "916.8"
        },
        {
          "StationName": "Keshorai Patan",
          "StationCode": "KPTN",
          "ArrivalTime": "12:29",
          "DepartureTime": "12:29",
          "HaltMinutes": "&nbsp;",
          "Day": 2,
          "Latitude": 25.32351,
          "Longitude": 75.93719,
          "stopNumberDisplay": "29.6",
          "Distance": "922.3"
        },
        {
          "StationName": "Arnetha",
          "StationCode": "ARE",
          "ArrivalTime": "12:37",
          "DepartureTime": "12:37",
          "HaltMinutes": "&nbsp;",
          "Day": 2,
          "Latitude": 25.38974,
          "Longitude": 76.01868,
          "stopNumberDisplay": "29.7",
          "Distance": "933.3"
        },
        {
          "StationName": "Kapren",
          "StationCode": "KPZ",
          "ArrivalTime": "12:44",
          "DepartureTime": "12:44",
          "HaltMinutes": "&nbsp;",
          "Day": 2,
          "Latitude": 25.44418,
          "Longitude": 76.08551,
          "stopNumberDisplay": "29.8",
          "Distance": "942.4"
        },
        {
          "StationName": "Ghat ka Varana",
          "StationCode": "GKB",
          "ArrivalTime": "12:51",
          "DepartureTime": "12:51",
          "HaltMinutes": "&nbsp;",
          "Day": 2,
          "Latitude": 25.50609,
          "Longitude": 76.15993,
          "stopNumberDisplay": "29.9",
          "Distance": "952.5"
        },
        {
          "StationName": "Laban",
          "StationCode": "LBN",
          "ArrivalTime": "12:58",
          "DepartureTime": "12:58",
          "HaltMinutes": "&nbsp;",
          "Day": 2,
          "Latitude": 25.57402,
          "Longitude": 76.20806,
          "stopNumberDisplay": "29.10",
          "Distance": "962.0"
        }
      ],
      "TrainNo": 19037,
      "StationCode": "KOTA",
      "RouteNo": 1,
      "StopNumber": 29,
      "TrainMappingKey": "991903729",
      "StationName": "KOTA JN",
      "ArrivalTime": "12:10",
      "DepartureTime": "12:20",
      "HaltMinutes": "10:00",
      "Distance": "909",
      "HasWifi": false,
      "Day": 2,
      "DataChanged": false,
      "ExpectedPlatformNo": "1",
      "arrivalDelay": "32 Min",
      "departureDelay": "32 Min",
      "Latitude": 25.22388,
      "Longitude": 75.88119,
      "stopNumberDisplay": 29.0
    },
    {
      "intermediateStations": [
        {
          "StationName": "Indargarh Sumerganj Mandi",
          "StationCode": "IDG",
          "ArrivalTime": "13:16",
          "DepartureTime": "13:16",
          "HaltMinutes": "&nbsp;",
          "Day": 2,
          "Latitude": 25.7275,
          "Longitude": 76.23291,
          "stopNumberDisplay": "30.1",
          "Distance": "980.5"
        },
        {
          "StationName": "Amli",
          "StationCode": "AMLI",
          "ArrivalTime": "13:30",
          "DepartureTime": "13:30",
          "HaltMinutes": "&nbsp;",
          "Day": 2,
          "Latitude": 25.82806,
          "Longitude": 76.28609,
          "stopNumberDisplay": "30.2",
          "Distance": "993.5"
        },
        {
          "StationName": "Rawanjna Dungar",
          "StationCode": "RWJ",
          "ArrivalTime": "13:38",
          "DepartureTime": "13:38",
          "HaltMinutes": "&nbsp;",
          "Day": 2,
          "Latitude": 25.88937,
          "Longitude": 76.31382,
          "stopNumberDisplay": "30.3",
          "Distance": "1001.3"
        },
        {
          "StationName": "Kushtala",
          "StationCode": "KTA",
          "ArrivalTime": "13:47",
          "DepartureTime": "13:47",
          "HaltMinutes": "&nbsp;",
          "Day": 2,
          "Latitude": 25.96123,
          "Longitude": 76.32678,
          "stopNumberDisplay": "30.4",
          "Distance": "1009.6"
        }
      ],
      "TrainNo": 19037,
      "StationCode": "LKE",
      "RouteNo": 1,
      "StopNumber": 30,
      "TrainMappingKey": "991903730",
      "StationName": "LAKHERI",
      "ArrivalTime": "13:03",
      "DepartureTime": "13:05",
      "HaltMinutes": "02:00",
      "Distance": "969",
      "HasWifi": false,
      "Day": 2,
      "DataChanged": false,
      "ExpectedPlatformNo": null,
      "arrivalDelay": "34 Min",
      "departureDelay": "34 Min",
      "Latitude": 25.63981,
      "Longitude": 76.1928,
      "stopNumberDisplay": 30.0
    },
    {
      "intermediateStations": [
        {
          "StationName": "Sawai Madhopur D Cabin",
          "StationCode": "SMDC",
          "ArrivalTime": "14:03",
          "DepartureTime": "14:03",
          "HaltMinutes": "&nbsp;",
          "Day": 2,
          "Latitude": 26.03995,
          "Longitude": 76.380411,
          "stopNumberDisplay": "31.1",
          "Distance": "1020.2"
        },
        {
          "StationName": "Ranthambhore",
          "StationCode": "RNT",
          "ArrivalTime": "14:08",
          "DepartureTime": "14:08",
          "HaltMinutes": "&nbsp;",
          "Day": 2,
          "Latitude": 26.093435,
          "Longitude": 76.410514,
          "stopNumberDisplay": "31.2",
          "Distance": "1026.9"
        },
        {
          "StationName": "Mokholi",
          "StationCode": "MXL",
          "ArrivalTime": "14:15",
          "DepartureTime": "14:15",
          "HaltMinutes": "&nbsp;",
          "Day": 2,
          "Latitude": 26.161849,
          "Longitude": 76.461724,
          "stopNumberDisplay": "31.3",
          "Distance": "1036.1"
        },
        {
          "StationName": "Malarna",
          "StationCode": "MLZ",
          "ArrivalTime": "14:24",
          "DepartureTime": "14:24",
          "HaltMinutes": "&nbsp;",
          "Day": 2,
          "Latitude": 26.231247,
          "Longitude": 76.53498,
          "stopNumberDisplay": "31.4",
          "Distance": "1046.9"
        },
        {
          "StationName": "Nimoda",
          "StationCode": "NMD",
          "ArrivalTime": "14:29",
          "DepartureTime": "14:29",
          "HaltMinutes": "&nbsp;",
          "Day": 2,
          "Latitude": 26.279879,
          "Longitude": 76.579391,
          "stopNumberDisplay": "31.5",
          "Distance": "1054.0"
        },
        {
          "StationName": "Narayanpur Tatwara",
          "StationCode": "NNW",
          "ArrivalTime": "14:37",
          "DepartureTime": "14:37",
          "HaltMinutes": "&nbsp;",
          "Day": 2,
          "Latitude": 26.34424,
          "Longitude": 76.635717,
          "stopNumberDisplay": "31.6",
          "Distance": "1063.7"
        },
        {
          "StationName": "Lalpur Umri",
          "StationCode": "LRU",
          "ArrivalTime": "14:45",
          "DepartureTime": "14:45",
          "HaltMinutes": "&nbsp;",
          "Day": 2,
          "Latitude": 26.430111,
          "Longitude": 76.680537,
          "stopNumberDisplay": "31.7",
          "Distance": "1074.3"
        }
      ],
      "TrainNo": 19037,
      "StationCode": "SWM",
      "RouteNo": 1,
      "StopNumber": 31,
      "TrainMappingKey": "991903731",
      "StationName": "SAWAI MADHOPUR",
      "ArrivalTime": "13:55",
      "DepartureTime": "14:00",
      "HaltMinutes": "05:00",
      "Distance": "1017",
      "HasWifi": false,
      "Day": 2,
      "DataChanged": false,
      "ExpectedPlatformNo": "1",
      "arrivalDelay": "46 Min",
      "departureDelay": "46 Min",
      "Latitude": 26.01906,
      "Longitude": 76.35744,
      "stopNumberDisplay": 31.0
    },
    {
      "intermediateStations": [
        {
          "StationName": "Chhoti Odai",
          "StationCode": "COO",
          "ArrivalTime": "15:05",
          "DepartureTime": "15:05",
          "HaltMinutes": "&nbsp;",
          "Day": 2,
          "Latitude": 26.558806,
          "Longitude": 76.805556,
          "stopNumberDisplay": "32.1",
          "Distance": "1093.4"
        },
        {
          "StationName": "Piloda",
          "StationCode": "PDZ",
          "ArrivalTime": "15:12",
          "DepartureTime": "15:12",
          "HaltMinutes": "&nbsp;",
          "Day": 2,
          "Latitude": 26.606084,
          "Longitude": 76.863933,
          "stopNumberDisplay": "32.2",
          "Distance": "1101.2"
        },
        {
          "StationName": "Khandip",
          "StationCode": "KNDP",
          "ArrivalTime": "15:17",
          "DepartureTime": "15:17",
          "HaltMinutes": "&nbsp;",
          "Day": 2,
          "Latitude": 26.640946,
          "Longitude": 76.911912,
          "stopNumberDisplay": "32.3",
          "Distance": "1107.4"
        }
      ],
      "TrainNo": 19037,
      "StationCode": "GGC",
      "RouteNo": 1,
      "StopNumber": 32,
      "TrainMappingKey": "991903732",
      "StationName": "GANGAPUR CITY",
      "ArrivalTime": "14:50",
      "DepartureTime": "14:55",
      "HaltMinutes": "05:00",
      "Distance": "1080",
      "HasWifi": false,
      "Day": 2,
      "DataChanged": false,
      "ExpectedPlatformNo": null,
      "arrivalDelay": "-",
      "departureDelay": "-",
      "Latitude": 26.468415,
      "Longitude": 76.727299,
      "stopNumberDisplay": 32.0
    },
    {
      "intermediateStations": [
        {
          "StationName": "Sikroda Mina",
          "StationCode": "SKDM",
          "ArrivalTime": "15:32",
          "DepartureTime": "15:32",
          "HaltMinutes": "&nbsp;",
          "Day": 2,
          "Latitude": 26.723147,
          "Longitude": 77.002328,
          "stopNumberDisplay": "33.1",
          "Distance": "1120.2"
        }
      ],
      "TrainNo": 19037,
      "StationCode": "SMVJ",
      "RouteNo": 1,
      "StopNumber": 33,
      "TrainMappingKey": "991903733",
      "StationName": "SHRI MAHAVEERJI",
      "ArrivalTime": "15:23",
      "DepartureTime": "15:25",
      "HaltMinutes": "02:00",
      "Distance": "1114",
      "HasWifi": false,
      "Day": 2,
      "DataChanged": false,
      "ExpectedPlatformNo": null,
      "arrivalDelay": "-",
      "departureDelay": "-",
      "Latitude": null,
      "Longitude": null,
      "stopNumberDisplay": 33.0
    },
    {
      "intermediateStations": [
        {
          "StationName": "Dhindora Hukmikhera",
          "StationCode": "DNHK",
          "ArrivalTime": "15:53",
          "DepartureTime": "15:53",
          "HaltMinutes": "&nbsp;",
          "Day": 2,
          "Latitude": 26.800948,
          "Longitude": 77.095965,
          "stopNumberDisplay": "34.1",
          "Distance": "1133.2"
        },
        {
          "StationName": "Fateh Singhpura",
          "StationCode": "FSP",
          "ArrivalTime": "16:00",
          "DepartureTime": "16:00",
          "HaltMinutes": "&nbsp;",
          "Day": 2,
          "Latitude": 26.818701,
          "Longitude": 77.140735,
          "stopNumberDisplay": "34.2",
          "Distance": "1138.1"
        },
        {
          "StationName": "Dumariya",
          "StationCode": "DY",
          "ArrivalTime": "16:16",
          "DepartureTime": "16:16",
          "HaltMinutes": "&nbsp;",
          "Day": 2,
          "Latitude": 26.864354,
          "Longitude": 77.233802,
          "stopNumberDisplay": "34.3",
          "Distance": "1148.8"
        }
      ],
      "TrainNo": 19037,
      "StationCode": "HAN",
      "RouteNo": 1,
      "StopNumber": 34,
      "TrainMappingKey": "991903734",
      "StationName": "HINDAUN CITY",
      "ArrivalTime": "15:38",
      "DepartureTime": "15:40",
      "HaltMinutes": "02:00",
      "Distance": "1124",
      "HasWifi": false,
      "Day": 2,
      "DataChanged": false,
      "ExpectedPlatformNo": "2",
      "arrivalDelay": "01 Hr 06 Min",
      "departureDelay": "01 Hr 06 Min",
      "Latitude": 26.75581,
      "Longitude": 77.031309,
      "stopNumberDisplay": 34.0
    },
    {
      "intermediateStations": [
        {
          "StationName": "Birambad",
          "StationCode": "BAMA",
          "ArrivalTime": "16:39",
          "DepartureTime": "16:39",
          "HaltMinutes": "&nbsp;",
          "Day": 2,
          "Latitude": 26.92339,
          "Longitude": 77.3231,
          "stopNumberDisplay": "35.1",
          "Distance": "1162.3"
        },
        {
          "StationName": "Bandh Bareta",
          "StationCode": "BR",
          "ArrivalTime": "16:44",
          "DepartureTime": "16:44",
          "HaltMinutes": "&nbsp;",
          "Day": 2,
          "Latitude": 26.9105,
          "Longitude": 77.3645,
          "stopNumberDisplay": "35.2",
          "Distance": "1167.0"
        },
        {
          "StationName": "Naglatula",
          "StationCode": "NGLT",
          "ArrivalTime": "16:49",
          "DepartureTime": "16:49",
          "HaltMinutes": "&nbsp;",
          "Day": 2,
          "Latitude": 26.9241,
          "Longitude": 77.4204,
          "stopNumberDisplay": "35.3",
          "Distance": "1172.7"
        },
        {
          "StationName": "Bansi Paharpur",
          "StationCode": "BIQ",
          "ArrivalTime": "16:55",
          "DepartureTime": "16:55",
          "HaltMinutes": "&nbsp;",
          "Day": 2,
          "Latitude": 26.9347,
          "Longitude": 77.4818,
          "stopNumberDisplay": "35.4",
          "Distance": "1179.0"
        },
        {
          "StationName": "Dhana Kherli",
          "StationCode": "DXK",
          "ArrivalTime": "17:01",
          "DepartureTime": "17:01",
          "HaltMinutes": "&nbsp;",
          "Day": 2,
          "Latitude": 26.949,
          "Longitude": 77.53409,
          "stopNumberDisplay": "35.5",
          "Distance": "1184.8"
        }
      ],
      "TrainNo": 19037,
      "StationCode": "BXN",
      "RouteNo": 1,
      "StopNumber": 35,
      "TrainMappingKey": "991903735",
      "StationName": "BAYANA JN",
      "ArrivalTime": "16:30",
      "DepartureTime": "16:35",
      "HaltMinutes": "05:00",
      "Distance": "1157",
      "HasWifi": false,
      "Day": 2,
      "DataChanged": false,
      "ExpectedPlatformNo": "1",
      "arrivalDelay": "55 Min",
      "departureDelay": "55 Min",
      "Latitude": 26.91628,
      "Longitude": 77.29679,
      "stopNumberDisplay": 35.0
    },
    {
      "intermediateStations": [
        {
          "StationName": "Aulenda",
          "StationCode": "AED",
          "ArrivalTime": "17:15",
          "DepartureTime": "17:15",
          "HaltMinutes": "&nbsp;",
          "Day": 2,
          "Latitude": 27.0321,
          "Longitude": 77.6151,
          "stopNumberDisplay": "36.1",
          "Distance": "1197.4"
        }
      ],
      "TrainNo": 19037,
      "StationCode": "RBS",
      "RouteNo": 1,
      "StopNumber": 36,
      "TrainMappingKey": "991903736",
      "StationName": "RUPBAS",
      "ArrivalTime": "17:08",
      "DepartureTime": "17:10",
      "HaltMinutes": "02:00",
      "Distance": "1191",
      "HasWifi": false,
      "Day": 2,
      "DataChanged": false,
      "ExpectedPlatformNo": "1",
      "arrivalDelay": "52 Min",
      "departureDelay": "52 Min",
      "Latitude": 26.9895,
      "Longitude": 77.59059,
      "stopNumberDisplay": 36.0
    },
    {
      "intermediateStations": [
        {
          "StationName": "Singarpur",
          "StationCode": "SNPR",
          "ArrivalTime": "17:32",
          "DepartureTime": "17:32",
          "HaltMinutes": "&nbsp;",
          "Day": 2,
          "Latitude": 27.1141,
          "Longitude": 77.7163,
          "stopNumberDisplay": "37.1",
          "Distance": "1212.6"
        }
      ],
      "TrainNo": 19037,
      "StationCode": "FTS",
      "RouteNo": 1,
      "StopNumber": 37,
      "TrainMappingKey": "991903737",
      "StationName": "FATEHPUR SIKRI",
      "ArrivalTime": "17:23",
      "DepartureTime": "17:25",
      "HaltMinutes": "02:00",
      "Distance": "1206",
      "HasWifi": false,
      "Day": 2,
      "DataChanged": false,
      "ExpectedPlatformNo": "1",
      "arrivalDelay": "44 Min",
      "departureDelay": "44 Min",
      "Latitude": 27.0939,
      "Longitude": 77.67059,
      "stopNumberDisplay": 37.0
    },
    {
      "intermediateStations": [],
      "TrainNo": 19037,
      "StationCode": "IDH",
      "RouteNo": 1,
      "StopNumber": 38,
      "TrainMappingKey": "991903738",
      "StationName": "IDGAH AGRA JN",
      "ArrivalTime": "18:48",
      "DepartureTime": "18:50",
      "HaltMinutes": "02:00",
      "Distance": "1240",
      "HasWifi": false,
      "Day": 2,
      "DataChanged": false,
      "ExpectedPlatformNo": "1",
      "arrivalDelay": "01 Hr 03 Min",
      "departureDelay": "01 Hr 03 Min",
      "Latitude": null,
      "Longitude": null,
      "stopNumberDisplay": 38.0
    },
    {
      "intermediateStations": [
        {
          "StationName": "Yamuna Bridge Agra",
          "StationCode": "JAB",
          "ArrivalTime": "19:40",
          "DepartureTime": "19:40",
          "HaltMinutes": "&nbsp;",
          "Day": 2,
          "Latitude": null,
          "Longitude": null,
          "stopNumberDisplay": "39.1",
          "Distance": "1244.9"
        },
        {
          "StationName": "Chhalesar",
          "StationCode": "CHLR",
          "ArrivalTime": "20:02",
          "DepartureTime": "20:02",
          "HaltMinutes": "&nbsp;",
          "Day": 2,
          "Latitude": 27.214909,
          "Longitude": 78.090414,
          "stopNumberDisplay": "39.2",
          "Distance": "1250.6"
        },
        {
          "StationName": "Kuberpur",
          "StationCode": "KBP",
          "ArrivalTime": "20:18",
          "DepartureTime": "20:18",
          "HaltMinutes": "&nbsp;",
          "Day": 2,
          "Latitude": 27.222824,
          "Longitude": 78.131087,
          "stopNumberDisplay": "39.3",
          "Distance": "1254.7"
        },
        {
          "StationName": "Etmadpur",
          "StationCode": "ETUE",
          "ArrivalTime": "20:45",
          "DepartureTime": "20:45",
          "HaltMinutes": "&nbsp;",
          "Day": 2,
          "Latitude": 27.221655,
          "Longitude": 78.198404,
          "stopNumberDisplay": "39.4",
          "Distance": "1261.5"
        }
      ],
      "TrainNo": 19037,
      "StationCode": "AF",
      "RouteNo": 1,
      "StopNumber": 39,
      "TrainMappingKey": "991903739",
      "StationName": "AGRA FORT",
      "ArrivalTime": "19:20",
      "DepartureTime": "19:30",
      "HaltMinutes": "10:00",
      "Distance": "1242",
      "HasWifi": false,
      "Day": 2,
      "DataChanged": false,
      "ExpectedPlatformNo": "1",
      "arrivalDelay": "45 Min",
      "departureDelay": "45 Min",
      "Latitude": null,
      "Longitude": null,
      "stopNumberDisplay": 39.0
    },
    {
      "intermediateStations": [
        {
          "StationName": "Hirangaon",
          "StationCode": "HNG",
          "ArrivalTime": "21:16",
          "DepartureTime": "21:16",
          "HaltMinutes": "&nbsp;",
          "Day": 2,
          "Latitude": 27.17556,
          "Longitude": 78.31457,
          "stopNumberDisplay": "40.1",
          "Distance": "1274.0"
        }
      ],
      "TrainNo": 19037,
      "StationCode": "TDL",
      "RouteNo": 1,
      "StopNumber": 40,
      "TrainMappingKey": "991903740",
      "StationName": "TUNDLA JN",
      "ArrivalTime": "21:00",
      "DepartureTime": "21:05",
      "HaltMinutes": "05:00",
      "Distance": "1264",
      "HasWifi": true,
      "Day": 2,
      "DataChanged": false,
      "ExpectedPlatformNo": "7",
      "arrivalDelay": "54 Min",
      "departureDelay": "54 Min",
      "Latitude": 27.194353,
      "Longitude": 78.267639,
      "stopNumberDisplay": 40.0
    },
    {
      "intermediateStations": [
        {
          "StationName": "Makkhanpur",
          "StationCode": "MNR",
          "ArrivalTime": "21:35",
          "DepartureTime": "21:35",
          "HaltMinutes": "&nbsp;",
          "Day": 2,
          "Latitude": 27.115277,
          "Longitude": 78.483136,
          "stopNumberDisplay": "41.1",
          "Distance": "1292.0"
        }
      ],
      "TrainNo": 19037,
      "StationCode": "FZD",
      "RouteNo": 1,
      "StopNumber": 41,
      "TrainMappingKey": "991903741",
      "StationName": "FIROZABAD",
      "ArrivalTime": "21:25",
      "DepartureTime": "21:27",
      "HaltMinutes": "02:00",
      "Distance": "1281",
      "HasWifi": false,
      "Day": 2,
      "DataChanged": false,
      "ExpectedPlatformNo": "2",
      "arrivalDelay": "27 Min",
      "departureDelay": "27 Min",
      "Latitude": 27.147599,
      "Longitude": 78.386621,
      "stopNumberDisplay": 41.0
    },
    {
      "intermediateStations": [
        {
          "StationName": "Kaurara",
          "StationCode": "KAA",
          "ArrivalTime": "21:52",
          "DepartureTime": "21:52",
          "HaltMinutes": "&nbsp;",
          "Day": 2,
          "Latitude": 27.028832,
          "Longitude": 78.664349,
          "stopNumberDisplay": "42.1",
          "Distance": "1312.6"
        },
        {
          "StationName": "Bhadan",
          "StationCode": "BDN",
          "ArrivalTime": "21:58",
          "DepartureTime": "21:58",
          "HaltMinutes": "&nbsp;",
          "Day": 2,
          "Latitude": 26.979374,
          "Longitude": 78.737408,
          "stopNumberDisplay": "42.2",
          "Distance": "1321.6"
        },
        {
          "StationName": "Balrai",
          "StationCode": "BBL",
          "ArrivalTime": "22:04",
          "DepartureTime": "22:04",
          "HaltMinutes": "&nbsp;",
          "Day": 2,
          "Latitude": 26.920681,
          "Longitude": 78.823927,
          "stopNumberDisplay": "42.3",
          "Distance": "1332.4"
        },
        {
          "StationName": "Jaswantnagar",
          "StationCode": "JGR",
          "ArrivalTime": "22:10",
          "DepartureTime": "22:10",
          "HaltMinutes": "&nbsp;",
          "Day": 2,
          "Latitude": 26.873216,
          "Longitude": 78.893779,
          "stopNumberDisplay": "42.4",
          "Distance": "1341.1"
        },
        {
          "StationName": "Sarai Bhopat",
          "StationCode": "SB",
          "ArrivalTime": "22:15",
          "DepartureTime": "22:15",
          "HaltMinutes": "&nbsp;",
          "Day": 2,
          "Latitude": 26.831441,
          "Longitude": 78.955116,
          "stopNumberDisplay": "42.5",
          "Distance": "1348.8"
        }
      ],
      "TrainNo": 19037,
      "StationCode": "SKB",
      "RouteNo": 1,
      "StopNumber": 42,
      "TrainMappingKey": "991903742",
      "StationName": "SHIKOHABAD JN",
      "ArrivalTime": "21:43",
      "DepartureTime": "21:45",
      "HaltMinutes": "02:00",
      "Distance": "1301",
      "HasWifi": false,
      "Day": 2,
      "DataChanged": false,
      "ExpectedPlatformNo": "2",
      "arrivalDelay": "25 Min",
      "departureDelay": "25 Min",
      "Latitude": 27.086126,
      "Longitude": 78.575455,
      "stopNumberDisplay": 42.0
    },
    {
      "intermediateStations": [
        {
          "StationName": "Ekdil",
          "StationCode": "EKL",
          "ArrivalTime": "22:33",
          "DepartureTime": "22:33",
          "HaltMinutes": "&nbsp;",
          "Day": 2,
          "Latitude": 26.76598,
          "Longitude": 79.11874,
          "stopNumberDisplay": "43.1",
          "Distance": "1367.0"
        }
      ],
      "TrainNo": 19037,
      "StationCode": "ETW",
      "RouteNo": 1,
      "StopNumber": 43,
      "TrainMappingKey": "991903743",
      "StationName": "ETAWAH JN",
      "ArrivalTime": "22:20",
      "DepartureTime": "22:25",
      "HaltMinutes": "05:00",
      "Distance": "1356",
      "HasWifi": true,
      "Day": 2,
      "DataChanged": false,
      "ExpectedPlatformNo": "3",
      "arrivalDelay": "19 Min",
      "departureDelay": "19 Min",
      "Latitude": 26.7866,
      "Longitude": 79.0222,
      "stopNumberDisplay": 43.0
    },
    {
      "intermediateStations": [
        {
          "StationName": "Samhon",
          "StationCode": "SHW",
          "ArrivalTime": "22:48",
          "DepartureTime": "22:48",
          "HaltMinutes": "&nbsp;",
          "Day": 2,
          "Latitude": 26.73431,
          "Longitude": 79.32076,
          "stopNumberDisplay": "44.1",
          "Distance": "1387.4"
        },
        {
          "StationName": "Ghasara Halt",
          "StationCode": "GHSR",
          "ArrivalTime": "22:50",
          "DepartureTime": "22:50",
          "HaltMinutes": "&nbsp;",
          "Day": 2,
          "Latitude": 26.72447,
          "Longitude": 79.35575,
          "stopNumberDisplay": "44.2",
          "Distance": "1391.0"
        },
        {
          "StationName": "Achalda",
          "StationCode": "ULD",
          "ArrivalTime": "22:54",
          "DepartureTime": "22:54",
          "HaltMinutes": "&nbsp;",
          "Day": 2,
          "Latitude": 26.702028,
          "Longitude": 79.404162,
          "stopNumberDisplay": "44.3",
          "Distance": "1396.5"
        },
        {
          "StationName": "Pata",
          "StationCode": "PATA",
          "ArrivalTime": "22:59",
          "DepartureTime": "22:59",
          "HaltMinutes": "&nbsp;",
          "Day": 2,
          "Latitude": 26.667089,
          "Longitude": 79.47953,
          "stopNumberDisplay": "44.4",
          "Distance": "1404.9"
        }
      ],
      "TrainNo": 19037,
      "StationCode": "BNT",
      "RouteNo": 1,
      "StopNumber": 44,
      "TrainMappingKey": "991903744",
      "StationName": "BHARTHANA",
      "ArrivalTime": "22:40",
      "DepartureTime": "22:41",
      "HaltMinutes": "01:00",
      "Distance": "1376",
      "HasWifi": false,
      "Day": 2,
      "DataChanged": false,
      "ExpectedPlatformNo": "2",
      "arrivalDelay": "25 Min",
      "departureDelay": "25 Min",
      "Latitude": 26.7506,
      "Longitude": 79.21697,
      "stopNumberDisplay": 44.0
    },
    {
      "intermediateStations": [
        {
          "StationName": "Kanchausi",
          "StationCode": "KNS",
          "ArrivalTime": "23:22",
          "DepartureTime": "23:22",
          "HaltMinutes": "&nbsp;",
          "Day": 2,
          "Latitude": 26.597748,
          "Longitude": 79.634507,
          "stopNumberDisplay": "45.1",
          "Distance": "1422.1"
        },
        {
          "StationName": "Parjani",
          "StationCode": "PJY",
          "ArrivalTime": "23:31",
          "DepartureTime": "23:31",
          "HaltMinutes": "&nbsp;",
          "Day": 2,
          "Latitude": 26.577248,
          "Longitude": 79.682397,
          "stopNumberDisplay": "45.2",
          "Distance": "1427.4"
        },
        {
          "StationName": "Jhinjhak",
          "StationCode": "JJK",
          "ArrivalTime": "23:42",
          "DepartureTime": "23:42",
          "HaltMinutes": "&nbsp;",
          "Day": 2,
          "Latitude": 26.554792,
          "Longitude": 79.734623,
          "stopNumberDisplay": "45.3",
          "Distance": "1433.2"
        },
        {
          "StationName": "Ambiapur",
          "StationCode": "AAP",
          "ArrivalTime": "00:00",
          "DepartureTime": "00:00",
          "HaltMinutes": "&nbsp;",
          "Day": 3,
          "Latitude": 26.515049,
          "Longitude": 79.826746,
          "stopNumberDisplay": "45.4",
          "Distance": "1443.3"
        },
        {
          "StationName": "Rura",
          "StationCode": "RURA",
          "ArrivalTime": "00:16",
          "DepartureTime": "00:16",
          "HaltMinutes": "&nbsp;",
          "Day": 3,
          "Latitude": 26.485223,
          "Longitude": 79.908095,
          "stopNumberDisplay": "45.5",
          "Distance": "1452.1"
        },
        {
          "StationName": "Patra",
          "StationCode": "PTRA",
          "ArrivalTime": "00:25",
          "DepartureTime": "00:25",
          "HaltMinutes": "&nbsp;",
          "Day": 3,
          "Latitude": null,
          "Longitude": null,
          "stopNumberDisplay": "45.6",
          "Distance": "1457.2"
        },
        {
          "StationName": "Roshan Mau",
          "StationCode": "RMW",
          "ArrivalTime": "00:29",
          "DepartureTime": "00:29",
          "HaltMinutes": "&nbsp;",
          "Day": 3,
          "Latitude": 26.47932,
          "Longitude": 79.984879,
          "stopNumberDisplay": "45.7",
          "Distance": "1459.8"
        },
        {
          "StationName": "Maitha",
          "StationCode": "MTO",
          "ArrivalTime": "00:37",
          "DepartureTime": "00:37",
          "HaltMinutes": "&nbsp;",
          "Day": 3,
          "Latitude": 26.47631,
          "Longitude": 80.025037,
          "stopNumberDisplay": "45.8",
          "Distance": "1463.8"
        },
        {
          "StationName": "Bhaupur",
          "StationCode": "BPU",
          "ArrivalTime": "00:54",
          "DepartureTime": "00:54",
          "HaltMinutes": "&nbsp;",
          "Day": 3,
          "Latitude": 26.46855,
          "Longitude": 80.12515,
          "stopNumberDisplay": "45.9",
          "Distance": "1473.8"
        },
        {
          "StationName": "Panki Dham",
          "StationCode": "PNKD",
          "ArrivalTime": "01:15",
          "DepartureTime": "01:15",
          "HaltMinutes": "&nbsp;",
          "Day": 3,
          "Latitude": null,
          "Longitude": null,
          "stopNumberDisplay": "45.10",
          "Distance": "1485.1"
        },
        {
          "StationName": "Govindpuri",
          "StationCode": "GOY",
          "ArrivalTime": "01:28",
          "DepartureTime": "01:28",
          "HaltMinutes": "&nbsp;",
          "Day": 3,
          "Latitude": 26.4537,
          "Longitude": 80.3134,
          "stopNumberDisplay": "45.11",
          "Distance": "1492.5"
        },
        {
          "StationName": "Juhi Outer Cabin",
          "StationCode": "CNJO",
          "ArrivalTime": "01:31",
          "DepartureTime": "01:31",
          "HaltMinutes": "&nbsp;",
          "Day": 3,
          "Latitude": 26.4532,
          "Longitude": 80.3235,
          "stopNumberDisplay": "45.12",
          "Distance": "1494.4"
        },
        {
          "StationName": "Kanpur Goods Marshalling Yard",
          "StationCode": "GMC",
          "ArrivalTime": "01:33",
          "DepartureTime": "01:33",
          "HaltMinutes": "&nbsp;",
          "Day": 3,
          "Latitude": 26.4521,
          "Longitude": 80.3395,
          "stopNumberDisplay": "45.13",
          "Distance": "1495.2"
        }
      ],
      "TrainNo": 19037,
      "StationCode": "PHD",
      "RouteNo": 1,
      "StopNumber": 45,
      "TrainMappingKey": "991903745",
      "StationName": "PHAPHUND",
      "ArrivalTime": "23:05",
      "DepartureTime": "23:06",
      "HaltMinutes": "01:00",
      "Distance": "1412",
      "HasWifi": true,
      "Day": 2,
      "DataChanged": false,
      "ExpectedPlatformNo": "2",
      "arrivalDelay": "13 Min",
      "departureDelay": "13 Min",
      "Latitude": 26.632141,
      "Longitude": 79.554608,
      "stopNumberDisplay": 45.0
    },
    {
      "intermediateStations": [
        {
          "StationName": "Kanpur Bridge Left Bank",
          "StationCode": "CPB",
          "ArrivalTime": "01:51",
          "DepartureTime": "01:51",
          "HaltMinutes": "&nbsp;",
          "Day": 3,
          "Latitude": 26.47585,
          "Longitude": 80.37857,
          "stopNumberDisplay": "46.1",
          "Distance": "1500.3"
        },
        {
          "StationName": "Magarwara",
          "StationCode": "MGW",
          "ArrivalTime": "02:02",
          "DepartureTime": "02:02",
          "HaltMinutes": "&nbsp;",
          "Day": 3,
          "Latitude": 26.52443,
          "Longitude": 80.43084,
          "stopNumberDisplay": "46.2",
          "Distance": "1507.7"
        }
      ],
      "TrainNo": 19037,
      "StationCode": "CNB",
      "RouteNo": 1,
      "StopNumber": 46,
      "TrainMappingKey": "991903746",
      "StationName": "KANPUR CENTRAL",
      "ArrivalTime": "01:35",
      "DepartureTime": "01:45",
      "HaltMinutes": "10:00",
      "Distance": "1495",
      "HasWifi": false,
      "Day": 3,
      "DataChanged": false,
      "ExpectedPlatformNo": "8",
      "arrivalDelay": "-",
      "departureDelay": "-",
      "Latitude": null,
      "Longitude": null,
      "stopNumberDisplay": 46.0
    },
    {
      "intermediateStations": [
        {
          "StationName": "Sonik",
          "StationCode": "SIC",
          "ArrivalTime": "02:20",
          "DepartureTime": "02:20",
          "HaltMinutes": "&nbsp;",
          "Day": 3,
          "Latitude": 26.58617,
          "Longitude": 80.55982,
          "stopNumberDisplay": "47.1",
          "Distance": "1522.3"
        },
        {
          "StationName": "Ajgain",
          "StationCode": "AJ",
          "ArrivalTime": "02:27",
          "DepartureTime": "02:27",
          "HaltMinutes": "&nbsp;",
          "Day": 3,
          "Latitude": 26.61727,
          "Longitude": 80.62092,
          "stopNumberDisplay": "47.2",
          "Distance": "1529.4"
        },
        {
          "StationName": "Kusumbhi",
          "StationCode": "KVX",
          "ArrivalTime": "02:30",
          "DepartureTime": "02:30",
          "HaltMinutes": "&nbsp;",
          "Day": 3,
          "Latitude": 26.63962,
          "Longitude": 80.65428,
          "stopNumberDisplay": "47.3",
          "Distance": "1533.4"
        },
        {
          "StationName": "Jaitipur",
          "StationCode": "JTU",
          "ArrivalTime": "02:34",
          "DepartureTime": "02:34",
          "HaltMinutes": "&nbsp;",
          "Day": 3,
          "Latitude": 26.6631,
          "Longitude": 80.68862,
          "stopNumberDisplay": "47.4",
          "Distance": "1537.8"
        }
      ],
      "TrainNo": 19037,
      "StationCode": "ON",
      "RouteNo": 1,
      "StopNumber": 47,
      "TrainMappingKey": "991903747",
      "StationName": "UNNAO JN",
      "ArrivalTime": "02:11",
      "DepartureTime": "02:13",
      "HaltMinutes": "02:00",
      "Distance": "1513",
      "HasWifi": false,
      "Day": 3,
      "DataChanged": false,
      "ExpectedPlatformNo": "3",
      "arrivalDelay": "-",
      "departureDelay": "-",
      "Latitude": 26.5488,
      "Longitude": 80.4865,
      "stopNumberDisplay": 47.0
    },
    {
      "intermediateStations": [
        {
          "StationName": "Piparsand",
          "StationCode": "POF",
          "ArrivalTime": "02:54",
          "DepartureTime": "02:54",
          "HaltMinutes": "&nbsp;",
          "Day": 3,
          "Latitude": 26.7419,
          "Longitude": 80.79673,
          "stopNumberDisplay": "48.1",
          "Distance": "1551.7"
        },
        {
          "StationName": "Amausi",
          "StationCode": "AMS",
          "ArrivalTime": "03:06",
          "DepartureTime": "03:06",
          "HaltMinutes": "&nbsp;",
          "Day": 3,
          "Latitude": null,
          "Longitude": null,
          "stopNumberDisplay": "48.2",
          "Distance": "1557.4"
        },
        {
          "StationName": "Manak Nagar",
          "StationCode": "MKG",
          "ArrivalTime": "03:18",
          "DepartureTime": "03:18",
          "HaltMinutes": "&nbsp;",
          "Day": 3,
          "Latitude": 26.81071,
          "Longitude": 80.89104,
          "stopNumberDisplay": "48.3",
          "Distance": "1563.7"
        },
        {
          "StationName": "Block Hut A",
          "StationCode": "BKHA",
          "ArrivalTime": "03:23",
          "DepartureTime": "03:23",
          "HaltMinutes": "&nbsp;",
          "Day": 3,
          "Latitude": null,
          "Longitude": null,
          "stopNumberDisplay": "48.4",
          "Distance": "1566.5"
        }
      ],
      "TrainNo": 19037,
      "StationCode": "HRN",
      "RouteNo": 1,
      "StopNumber": 48,
      "TrainMappingKey": "991903748",
      "StationName": "HARAUNI",
      "ArrivalTime": "02:41",
      "DepartureTime": "02:42",
      "HaltMinutes": "01:00",
      "Distance": "1544",
      "HasWifi": false,
      "Day": 3,
      "DataChanged": false,
      "ExpectedPlatformNo": null,
      "arrivalDelay": "-",
      "departureDelay": "-",
      "Latitude": 26.70651,
      "Longitude": 80.74796,
      "stopNumberDisplay": 48.0
    },
    {
      "intermediateStations": [],
      "TrainNo": 19037,
      "StationCode": "ASH",
      "RouteNo": 1,
      "StopNumber": 49,
      "TrainMappingKey": "991903749",
      "StationName": "AISHBAGH",
      "ArrivalTime": "03:25",
      "DepartureTime": "03:35",
      "HaltMinutes": "10:00",
      "Distance": "1568",
      "HasWifi": false,
      "Day": 3,
      "DataChanged": false,
      "ExpectedPlatformNo": "1",
      "arrivalDelay": "-",
      "departureDelay": "-",
      "Latitude": 26.838004,
      "Longitude": 80.909968,
      "stopNumberDisplay": 49.0
    },